original_,original_selleraddress_raw,lat,lon,formatted,name,housenumber,street,district,suburb,state_code,postcode,city,county,state,country,country_code,confidence,confidence_city_level,confidence_street_level,confidence_building_level,attribution,attribution_license,attribution_url
0,"Moosburgstrasse 12, 9200 Gossau",47.418186,9.2385586,"Moosburgstrasse 12, 9201 Gossau (SG), Switzerland",Moosburgstrasse,12,Moosburgstrasse,,,,9201,Gossau (SG),Wahlkreis St. Gallen,St. Gallen,Switzerland,ch,0.45,0.9,0.9,0,© OpenStreetMap contributors,Open Database License,https://www.openstreetmap.org/copyright
1,"Hofwiesenstrasse 268, 8050 Zürich",47.406712,8.538337,"Hofwiesenstrasse 268, 8050 Zurich, Switzerland",,268,Hofwiesenstrasse,Zürich,Aldos,,8050,Zurich,Zurich,Zurich,Switzerland,ch,1,1,1,1,© OpenAddresses contributors,BSD-3-Clause License,
2,"Ueberlandstr. 34, 8051 Zürich/ Schwamendingen",47.405098,8.558258,"Ueberlandstrasse 34, 8051 Zurich, Switzerland",,34,Ueberlandstrasse,Zürich,Oerlikon,,8051,Zurich,Zurich,Zurich,Switzerland,ch,0.9,1,1,1,© OpenAddresses contributors,BSD-3-Clause License,
3,"Seetalstrasse 44, 6020 Emmenbrücke",47.074116,8.291336,"Seetalstrasse 44, 6020 Emmenbrücke, Switzerland",,44,Seetalstrasse,Emmen,,,6020,Emmenbrücke,Hochdorf,Lucerne,Switzerland,ch,1,1,1,1,© OpenAddresses contributors,BSD-3-Clause License,
4,"Unterdorf 1, 8261 Hemishofen",47.6761767,8.8296034,"Unterdorf 1, 8261 Hemishofen, Switzerland",,1,Unterdorf,,,SH,8261,Hemishofen,,Schaffhausen,Switzerland,ch,1,1,1,1,© OpenStreetMap contributors,Open Database License,https://www.openstreetmap.org/copyright
5,"Althardstrasse 302, 8105 Regensdorf",47.44627715,8.459922078907866,"Althardstrasse 302, 8105 Regensdorf, Switzerland",,302,Althardstrasse,,,,8105,Regensdorf,Bezirk Dielsdorf,Zurich,Switzerland,ch,1,1,1,1,© OpenStreetMap contributors,Open Database License,https://www.openstreetmap.org/copyright
6,"Hauptstrasse 13, 8583 Sulgen",47.534381,9.216361,"Hauptstrasse 13, 8583 Goetighofen, Switzerland",,13,Hauptstrasse,Sulgen,,TG,8583,Goetighofen,Weinfelden,Thurgau,Switzerland,ch,1,1,1,1,© OpenAddresses contributors,BSD-3-Clause License,
7,"UEBERLANDSTRASSE 100A, 8103 unterengstringen (fahrweid)",47.4069362,8.4107125,"Ueberlandstrasse 100, 8103 Unterengstringen, Switzerland",Ueberlandstrasse,100,Ueberlandstrasse,,,,8103,Unterengstringen,Bezirk Dietikon,Zurich,Switzerland,ch,0.7124999999999999,1,1,0.7124999999999999,© OpenStreetMap contributors,Open Database License,https://www.openstreetmap.org/copyright
8,"Zentralstrasse 9, 6036 Dierikon",47.0961766,8.366208906420571,"Zentralstrasse 9, 6036 Dierikon, Switzerland",,9,Zentralstrasse,,,,6036,Dierikon,,Lucerne,Switzerland,ch,1,1,1,1,© OpenStreetMap contributors,Open Database License,https://www.openstreetmap.org/copyright
9,"Hauptstrasse 13, 8583 Sulgen",47.534381,9.216361,"Hauptstrasse 13, 8583 Goetighofen, Switzerland",,13,Hauptstrasse,Sulgen,,TG,8583,Goetighofen,Weinfelden,Thurgau,Switzerland,ch,1,1,1,1,© OpenAddresses contributors,BSD-3-Clause License,
10,"Neulandweg 12, 5502 Hunzenschwil",47.386921,8.1107333,"Neulandweg 12, 5502 Hunzenschwil, Switzerland",Neulandweg,12,Neulandweg,,Neuland,AG,5502,Hunzenschwil,Bezirk Lenzburg,Aargau,Switzerland,ch,0.75,1,1,0.75,© OpenStreetMap contributors,Open Database License,https://www.openstreetmap.org/copyright
11,"schützenmatt str 16, 6020 Emmenbrücke",47.0719499,8.2843933,"Schützenmattstrasse 16, 6020 Emmen, Switzerland",Schützenmattstrasse,16,Schützenmattstrasse,Herdschwand,Emmenbrücke,,6020,Emmen,,Lucerne,Switzerland,ch,1,1,1,1,© OpenStreetMap contributors,Open Database License,https://www.openstreetmap.org/copyright
12,"Glatthaldestrasse 18a, 9230 Flawil",47.4101582,9.2044842,"Glatthaldestrasse 18, 9230 Flawil, Switzerland",Glatthaldestrasse,18,Glatthaldestrasse,,,,9230,Flawil,Wahlkreis Wil,St. Gallen,Switzerland,ch,0.95,1,1,0.95,© OpenStreetMap contributors,Open Database License,https://www.openstreetmap.org/copyright
13,"Zürcherstrasse 23, 8317 Tagelswangen-Lindau (Zürich)",47.4311647,8.6741245,"Postagentur Tagelswangen, Zürcherstrasse 23, 8317 Tagelswangen, Switzerland",Postagentur Tagelswangen,23,Zürcherstrasse,,Tagelswangen,,8317,Tagelswangen,Bezirk Pfäffikon,Zurich,Switzerland,ch,1,1,1,1,© OpenStreetMap contributors,Open Database License,https://www.openstreetmap.org/copyright
14,"Hauptstrasse 16, 5502 Hunzenschwil",47.386928499999996,8.13011012263918,"Hauptstrasse 16, 5502 Hunzenschwil, Switzerland",,16,Hauptstrasse,,,AG,5502,Hunzenschwil,Bezirk Lenzburg,Aargau,Switzerland,ch,1,1,1,1,© OpenStreetMap contributors,Open Database License,https://www.openstreetmap.org/copyright
15,"Luzernerstrasse 172, 5054 Moosleerau",47.268701500000006,8.063843231909255,"Luzernerstrasse 172, 5054 Moosleerau, Switzerland",,172,Luzernerstrasse,,,AG,5054,Moosleerau,Bezirk Zofingen,Aargau,Switzerland,ch,1,1,1,1,© OpenStreetMap contributors,Open Database License,https://www.openstreetmap.org/copyright
16,"Mühlentalstrasse 261, 8200 Schaffhausen",47.714062,8.631263,"Mühlentalstrasse 261, 8200 Schaffhausen, Switzerland",,261,Mühlentalstrasse,Schaffhausen,,SH,8200,Schaffhausen,Schaffhausen,Schaffhausen,Switzerland,ch,1,1,1,1,© OpenAddresses contributors,BSD-3-Clause License,
17,"Industriestrasse 6, 8604 Volketswil",47.38166579999999,8.666540085124762,"Industriestrasse 6, 8604 Volketswil, Switzerland",,6,Industriestrasse,,,,8604,Volketswil,Bezirk Uster,Zurich,Switzerland,ch,1,1,1,1,© OpenStreetMap contributors,Open Database License,https://www.openstreetmap.org/copyright
18,"Riedackerweg 14, 8107 Buchs",47.451569649999996,8.445061482148395,"AutoBuchs, Riedackerweg 14, 8107 Buchs (ZH), Switzerland",AutoBuchs,14,Riedackerweg,,,,8107,Buchs (ZH),Bezirk Dielsdorf,Zurich,Switzerland,ch,1,1,1,1,© OpenStreetMap contributors,Open Database License,https://www.openstreetmap.org/copyright
19,"Glatthaldestrasse 18a, 9230 Flawil",47.4101582,9.2044842,"Glatthaldestrasse 18, 9230 Flawil, Switzerland",Glatthaldestrasse,18,Glatthaldestrasse,,,,9230,Flawil,Wahlkreis Wil,St. Gallen,Switzerland,ch,0.95,1,1,0.95,© OpenStreetMap contributors,Open Database License,https://www.openstreetmap.org/copyright
20,"Hönggerstrasse 36, 8103 Unterengstringen/ZH",47.4105271,8.4546709,"Hönggerstrasse 36, 8103 Unterengstringen, Switzerland",,36,Hönggerstrasse,,,,8103,Unterengstringen,Bezirk Dietikon,Zurich,Switzerland,ch,1,1,1,1,© OpenStreetMap contributors,Open Database License,https://www.openstreetmap.org/copyright
21,"Erlenstrasse 5, 8865 Bilten",47.1502217,9.029847700000005,"Erlenstrasse 5, 8865 Glarus Nord, Switzerland",,5,Erlenstrasse,Unterbilten,,GL,8865,Glarus Nord,,Glarus,Switzerland,ch,1,1,1,1,© OpenStreetMap contributors,Open Database License,https://www.openstreetmap.org/copyright
22,"Erlenstrasse 5, 8865 Bilten",47.1502217,9.029847700000005,"Erlenstrasse 5, 8865 Glarus Nord, Switzerland",,5,Erlenstrasse,Unterbilten,,GL,8865,Glarus Nord,,Glarus,Switzerland,ch,1,1,1,1,© OpenStreetMap contributors,Open Database License,https://www.openstreetmap.org/copyright
23,"Hauptstrasse 51, 6418 6418 Rothenthurm",47.097811300000004,8.674013760921696,"Hauptstrasse 51, 6418 Rothenthurm, Switzerland",,51,Hauptstrasse,,,SZ,6418,Rothenthurm,Schwyz,Schwyz,Switzerland,ch,1,1,1,1,© OpenStreetMap contributors,Open Database License,https://www.openstreetmap.org/copyright
24,"industrie str 6, 8604 Volketswil",47.38166579999999,8.666540085124762,"Industriestrasse 6, 8604 Volketswil, Switzerland",,6,Industriestrasse,,,,8604,Volketswil,Bezirk Uster,Zurich,Switzerland,ch,0.5625,1,0.5625,0.5625,© OpenStreetMap contributors,Open Database License,https://www.openstreetmap.org/copyright
25,"IFANGSTRASSE 12, 8603 SCHWERZENBACH",47.383094,8.663402,"Ifangstrasse 12, 8603 Schwerzenbach, Switzerland",,12,Ifangstrasse,Schwerzenbach,,,8603,Schwerzenbach,Uster,Zurich,Switzerland,ch,0.3,0.3,0.3,0.3,© OpenAddresses contributors,BSD-3-Clause License,
26,"für besichtigung erst nachtelefonisch vereinbaren, 8105 regensdorf  zürich",47.430813,8.466199,"8105 Regensdorf, Switzerland",,,,Regensdorf,,,8105,Regensdorf,Dielsdorf,Zurich,Switzerland,ch,1,1,,,© OpenStreetMap contributors,Open Database License,https://www.openstreetmap.org/copyright
27,"Westring 9, 5502 Hunzenschwil",47.385223,8.116149,"Westring 9, 5502 Hunzenschwil, Switzerland",,9,Westring,Hunzenschwil,,AG,5502,Hunzenschwil,Lenzburg,Aargau,Switzerland,ch,1,1,1,1,© OpenAddresses contributors,BSD-3-Clause License,
28,"Mühlentalstrasse 261, 8200 Schaffhausen",47.714062,8.631263,"Mühlentalstrasse 261, 8200 Schaffhausen, Switzerland",,261,Mühlentalstrasse,Schaffhausen,,SH,8200,Schaffhausen,Schaffhausen,Schaffhausen,Switzerland,ch,1,1,1,1,© OpenAddresses contributors,BSD-3-Clause License,
29,"Surhardweg 14, 5102 Rupperswil",47.4027283,8.1274477,"5102 Rupperswil, Switzerland",,,,,,AG,5102,Rupperswil,Bezirk Lenzburg,Aargau,Switzerland,ch,0.25,1,,,© OpenStreetMap contributors,Open Database License,https://www.openstreetmap.org/copyright
30,"Althardstrasse 257, 8105 Regensdorf",47.444157700000005,8.46174322253416,"Althardstrasse 257, 8105 Regensdorf, Switzerland",,257,Althardstrasse,,,,8105,Regensdorf,Bezirk Dielsdorf,Zurich,Switzerland,ch,1,1,1,1,© OpenStreetMap contributors,Open Database License,https://www.openstreetmap.org/copyright
31,"Hofstrasse 99, 8620 Wetzikon ZH",47.309595,8.795105536843671,"Hofstrasse 99, 8620 Wetzikon (ZH), Switzerland",,99,Hofstrasse,,Unterwetzikon,,8620,Wetzikon (ZH),Bezirk Hinwil,Zurich,Switzerland,ch,1,1,1,1,© OpenStreetMap contributors,Open Database License,https://www.openstreetmap.org/copyright
32,"Feldstrasse 78, 8180 Bülach",47.5093758,8.538772346233385,"Feldstrasse 78, 8180 Bülach, Switzerland",,78,Feldstrasse,,,,8180,Bülach,Bezirk Bülach,Zurich,Switzerland,ch,1,1,1,1,© OpenStreetMap contributors,Open Database License,https://www.openstreetmap.org/copyright
33,8134 Adliswil,47.3117624,8.52491,"8134 Adliswil, Switzerland",,,,,,,8134,Adliswil,Bezirk Horgen,Zurich,Switzerland,ch,1,1,,,© OpenStreetMap contributors,Open Database License,https://www.openstreetmap.org/copyright
34,"Fabrikstrasse 5, 8340 Hinwil",47.2996684,8.83779086199977,"Fabrikstrasse 5, 8340 Hadlikon, Switzerland",,5,Fabrikstrasse,,,,8340,Hadlikon,Bezirk Hinwil,Zurich,Switzerland,ch,1,1,1,1,© OpenStreetMap contributors,Open Database License,https://www.openstreetmap.org/copyright
35,"Frauenfelderstrasse 13, 8523 Hagenbuch",47.5053194,8.8938136,"Frauenfelderstrasse 13, 8523 Hagenbuch, Switzerland",Frauenfelderstrasse,13,Frauenfelderstrasse,,,,8523,Hagenbuch,Bezirk Winterthur,Zurich,Switzerland,ch,0.75,1,1,0.75,© OpenStreetMap contributors,Open Database License,https://www.openstreetmap.org/copyright
36,"Althardstrasse 257, 8105 Regensdorf",47.444157700000005,8.46174322253416,"Althardstrasse 257, 8105 Regensdorf, Switzerland",,257,Althardstrasse,,,,8105,Regensdorf,Bezirk Dielsdorf,Zurich,Switzerland,ch,1,1,1,1,© OpenStreetMap contributors,Open Database License,https://www.openstreetmap.org/copyright
37,"Schlossstrasse 61, 8207 Schaffhausen",47.7260455,8.6621099,"Schlossstrasse 61, 8207 Schaffhausen, Switzerland",,61,Schlossstrasse,,Herblingen,SH,8207,Schaffhausen,,Schaffhausen,Switzerland,ch,1,1,1,1,© OpenStreetMap contributors,Open Database License,https://www.openstreetmap.org/copyright
38,"Cilanderstrasse 9, 9100 Herisau",47.38698085,9.272395671964238,"Cilanderstrasse 9, 9100 Herisau, Switzerland",,9,Cilanderstrasse,,,AR,9100,Herisau,Hinterland,Appenzell Ausserrhoden,Switzerland,ch,1,1,1,1,© OpenStreetMap contributors,Open Database License,https://www.openstreetmap.org/copyright
39,"Glatthaldestrasse 18a, 9230 Flawil",47.4101582,9.2044842,"Glatthaldestrasse 18, 9230 Flawil, Switzerland",Glatthaldestrasse,18,Glatthaldestrasse,,,,9230,Flawil,Wahlkreis Wil,St. Gallen,Switzerland,ch,0.95,1,1,0.95,© OpenStreetMap contributors,Open Database License,https://www.openstreetmap.org/copyright
40,"Industriestrasse 12, 6215 Beromünster",47.202835199999996,8.20358804506386,"Industriestrasse 12, 6215 Beromünster, Switzerland",,12,Industriestrasse,,,,6215,Beromünster,,Lucerne,Switzerland,ch,1,1,1,1,© OpenStreetMap contributors,Open Database License,https://www.openstreetmap.org/copyright
41,"Mühlentalstrasse 261, 8200 Schaffhausen",47.714062,8.631263,"Mühlentalstrasse 261, 8200 Schaffhausen, Switzerland",,261,Mühlentalstrasse,Schaffhausen,,SH,8200,Schaffhausen,Schaffhausen,Schaffhausen,Switzerland,ch,1,1,1,1,© OpenAddresses contributors,BSD-3-Clause License,
42,"Buchenhagstrasse 4, 8156 Oberhasli",47.459519400000005,8.488877067212545,"Buchenhagstrasse 4, 8156 Niederhasli, Switzerland",,4,Buchenhagstrasse,,,,8156,Niederhasli,Bezirk Dielsdorf,Zurich,Switzerland,ch,1,1,1,1,© OpenStreetMap contributors,Open Database License,https://www.openstreetmap.org/copyright
43,"Gotthardstrasse 17, 6414 Oberarth",47.05767555,8.532797350283902,"Gotthardstrasse 17, 6414 Goldau, Switzerland",,17,Gotthardstrasse,Türli,Oberarth,SZ,6414,Goldau,Schwyz,Schwyz,Switzerland,ch,1,1,1,1,© OpenStreetMap contributors,Open Database License,https://www.openstreetmap.org/copyright
44,"Seetalstrasse 41a, 8280 Kreuzlingen",47.6446066,9.1882192,"Kletterwand SAC Bodan, Seetalstrasse 41a, 8280 Kreuzlingen, Switzerland",Kletterwand SAC Bodan,41a,Seetalstrasse,Kurzrickenbach,,TG,8280,Kreuzlingen,Bezirk Kreuzlingen,Thurgau,Switzerland,ch,1,1,1,1,© OpenStreetMap contributors,Open Database License,https://www.openstreetmap.org/copyright
45,"Pfäffikerstrasse 36, 8610 Uster ZH",47.3582903,8.7289971,"Pfäffikerstrasse 36, 8610 Uster, Switzerland",,36,Pfäffikerstrasse,,,,8610,Uster,Bezirk Uster,Zurich,Switzerland,ch,1,1,1,1,© OpenStreetMap contributors,Open Database License,https://www.openstreetmap.org/copyright
46,"Althardstrasse 302, 8105 Regensdorf",47.44627715,8.459922078907866,"Althardstrasse 302, 8105 Regensdorf, Switzerland",,302,Althardstrasse,,,,8105,Regensdorf,Bezirk Dielsdorf,Zurich,Switzerland,ch,1,1,1,1,© OpenStreetMap contributors,Open Database License,https://www.openstreetmap.org/copyright
47,"Luzernerstrasse 172, 5054 Moosleerau",47.268701500000006,8.063843231909255,"Luzernerstrasse 172, 5054 Moosleerau, Switzerland",,172,Luzernerstrasse,,,AG,5054,Moosleerau,Bezirk Zofingen,Aargau,Switzerland,ch,1,1,1,1,© OpenStreetMap contributors,Open Database License,https://www.openstreetmap.org/copyright
48,"Dällikerstrasse 39, 8107 Buchs",47.4494254,8.438584574686047,"Dällikerstrasse 39, 8107 Buchs (ZH), Switzerland",,39,Dällikerstrasse,,,,8107,Buchs (ZH),Bezirk Dielsdorf,Zurich,Switzerland,ch,1,1,1,1,© OpenStreetMap contributors,Open Database License,https://www.openstreetmap.org/copyright
49,"Nägeliweg 2, 5313 Klingnau",47.5783791,8.2563506,"Nägeliweg 2, 5313 Klingnau, Switzerland",,2,Nägeliweg,,,AG,5313,Klingnau,Bezirk Zurzach,Aargau,Switzerland,ch,1,1,1,1,© OpenStreetMap contributors,Open Database License,https://www.openstreetmap.org/copyright
50,"Buchenhagstrasse 18, 8156 Oberhasli",47.457929,8.4939767,"Buchenhagstrasse 18, 8156 Niederhasli, Switzerland",Buchenhagstrasse,18,Buchenhagstrasse,,,,8156,Niederhasli,Bezirk Dielsdorf,Zurich,Switzerland,ch,0.75,1,1,0.75,© OpenStreetMap contributors,Open Database License,https://www.openstreetmap.org/copyright
51,"Bahnhofstrasse 13, 9553 Bettwiesen",47.498066800000004,9.021836790297018,"Bahnhofstrasse 13, 9553 Bettwiesen, Switzerland",,13,Bahnhofstrasse,,Tanks.ch,TG,9553,Bettwiesen,Bezirk Münchwilen,Thurgau,Switzerland,ch,1,1,1,1,© OpenStreetMap contributors,Open Database License,https://www.openstreetmap.org/copyright
52,"Wenkenrütistrasse 12, 9630 Wattwil",47.3051844,9.080565495238709,"Garage Manser, Wenkenrütistrasse 12, 9630 Bunt, Switzerland",Garage Manser,12,Wenkenrütistrasse,,Wattwil,,9630,Bunt,Wahlkreis Toggenburg,St. Gallen,Switzerland,ch,1,1,1,1,© OpenStreetMap contributors,Open Database License,https://www.openstreetmap.org/copyright
53,"Sornthalstrasse 9, 9213 Hauptwil",47.478857,9.249011,"Sornthalstrasse 9, 9213 Hauptwil-Gottshaus, Switzerland",,9,Sornthalstrasse,Hauptwil-Gottshaus,Rotfarb,TG,9213,Hauptwil-Gottshaus,Weinfelden,Thurgau,Switzerland,ch,1,1,1,1,© OpenAddresses contributors,BSD-3-Clause License,
54,8951 Fahrweid,47.4083023,8.4134385,"8951 Fahrweid (Weiningen (ZH)), Switzerland",,,,,,,8951,Weiningen (ZH),Bezirk Dietikon,Zurich,Switzerland,ch,1,1,,,© OpenStreetMap contributors,Open Database License,https://www.openstreetmap.org/copyright
55,"Aarauerstr. 39, 5734 Reinach",47.262049399999995,8.176249414705882,"Aarauerstrasse 39, 5734 Reinach, Switzerland",,39,Aarauerstrasse,,,AG,5734,Reinach,Bezirk Kulm,Aargau,Switzerland,ch,1,1,1,1,© OpenStreetMap contributors,Open Database License,https://www.openstreetmap.org/copyright
56,"Flaachtalstrasse 9, 8412 Hünikon /Winterthur",47.55203315,8.667941980024391,"Flaachtalstrasse 9, 8412 Hünikon, Switzerland",,9,Flaachtalstrasse,,,,8412,Hünikon,Bezirk Winterthur,Zurich,Switzerland,ch,1,1,1,1,© OpenStreetMap contributors,Open Database License,https://www.openstreetmap.org/copyright
57,"Rütistrasse  17, 8734 Ermenswil",47.24565285,8.883666258821336,"Rütistrasse 17, 8734 Eschenbach (SG), Switzerland",,17,Rütistrasse,,,,8734,Eschenbach (SG),Wahlkreis See-Gaster,St. Gallen,Switzerland,ch,1,1,1,1,© OpenStreetMap contributors,Open Database License,https://www.openstreetmap.org/copyright
58,"Wiesenstrasse 21, 5412 Gebenstorf AG",47.485725,8.241326,"Wiesenstrasse 21, 5412 Gebenstorf, Switzerland",,21,Wiesenstrasse,,Vogelsang,AG,5412,Gebenstorf,Bezirk Baden,Aargau,Switzerland,ch,1,1,1,1,© OpenStreetMap contributors,Open Database License,https://www.openstreetmap.org/copyright
59,"Sedelstrasse,7, 6020 Emmenbrücke  (KANTON LUZERN)",47.0700527,8.2857795,"Progress Plus AG, Sedelstrasse 7, 6020 Emmen, Switzerland",Progress Plus AG,7,Sedelstrasse,Meierhöfli,Emmenbrücke,,6020,Emmen,,Lucerne,Switzerland,ch,1,1,1,1,© OpenStreetMap contributors,Open Database License,https://www.openstreetmap.org/copyright
60,"Hauptstrasse 51, 6418 6418 Rothenthurm",47.097811300000004,8.674013760921696,"Hauptstrasse 51, 6418 Rothenthurm, Switzerland",,51,Hauptstrasse,,,SZ,6418,Rothenthurm,Schwyz,Schwyz,Switzerland,ch,1,1,1,1,© OpenStreetMap contributors,Open Database License,https://www.openstreetmap.org/copyright
61,"Ruessenstrasse 11, 6340 Baar",47.213407,8.56474,"Ruessenstrasse 11, 6340 Baar, Switzerland",,11,Ruessenstrasse,Baar,,ZG,6340,Baar,Zug,Zug,Switzerland,ch,1,1,1,1,© OpenAddresses contributors,BSD-3-Clause License,
62,"Rüeterswilerstrasse 43, 8735 St.Gallenkappel",47.251597200000006,8.97490735996238,"Rüeterswilerstrasse 43, 8735 Eschenbach (SG), Switzerland",,43,Rüeterswilerstrasse,,,,8735,Eschenbach (SG),Wahlkreis See-Gaster,St. Gallen,Switzerland,ch,1,1,1,1,© OpenStreetMap contributors,Open Database License,https://www.openstreetmap.org/copyright
63,"Güterstrasse 58, 5605 Dottikon",47.3720159,8.2325915,"Güterstrasse 58, 5605 Dottikon, Switzerland",,58,Güterstrasse,,,AG,5605,Dottikon,Bezirk Bremgarten,Aargau,Switzerland,ch,1,1,1,1,© OpenStreetMap contributors,Open Database License,https://www.openstreetmap.org/copyright
64,"Wenkenrütistrasse 12, 9630 Wattwil",47.3051844,9.080565495238709,"Garage Manser, Wenkenrütistrasse 12, 9630 Bunt, Switzerland",Garage Manser,12,Wenkenrütistrasse,,Wattwil,,9630,Bunt,Wahlkreis Toggenburg,St. Gallen,Switzerland,ch,1,1,1,1,© OpenStreetMap contributors,Open Database License,https://www.openstreetmap.org/copyright
65,"Wenkenrütistrasse 12, 9630 Wattwil",47.3051844,9.080565495238709,"Garage Manser, Wenkenrütistrasse 12, 9630 Bunt, Switzerland",Garage Manser,12,Wenkenrütistrasse,,Wattwil,,9630,Bunt,Wahlkreis Toggenburg,St. Gallen,Switzerland,ch,1,1,1,1,© OpenStreetMap contributors,Open Database License,https://www.openstreetmap.org/copyright
66,"Witzbergstrasse 5k, 8330 Pfäffikon ZH",47.3706455,8.773544448268927,"Witzbergstrasse 5, 8330 Pfäffikon, Switzerland",,5,Witzbergstrasse,Mattenquartier,,,8330,Pfäffikon,Bezirk Pfäffikon,Zurich,Switzerland,ch,0.95,1,1,0.95,© OpenStreetMap contributors,Open Database License,https://www.openstreetmap.org/copyright
67,"Eschenstrasse 12, 6020 Emmen",47.0729014,8.288351505508475,"Eschenstrasse 12, 6021 Emmen, Switzerland",,12,Eschenstrasse,Meierhöfli,Emmenbrücke,,6021,Emmen,,Lucerne,Switzerland,ch,1,1,1,1,© OpenStreetMap contributors,Open Database License,https://www.openstreetmap.org/copyright
68,"St. Gallerstrasse 41, 8716 Schmerikon",47.22763275,8.95643714655985,"St. Gallerstrasse 41, 8716 Schmerikon, Switzerland",,41,St. Gallerstrasse,,,,8716,Schmerikon,Wahlkreis See-Gaster,St. Gallen,Switzerland,ch,1,1,1,1,© OpenStreetMap contributors,Open Database License,https://www.openstreetmap.org/copyright
69,"St. Gallerstrasse 41, 8716 Schmerikon",47.22763275,8.95643714655985,"St. Gallerstrasse 41, 8716 Schmerikon, Switzerland",,41,St. Gallerstrasse,,,,8716,Schmerikon,Wahlkreis See-Gaster,St. Gallen,Switzerland,ch,1,1,1,1,© OpenStreetMap contributors,Open Database License,https://www.openstreetmap.org/copyright
70,"Seetalstrasse 41, 8280 Kreuzlingen",47.644358,9.18783319857162,"Seetalstrasse 41, 8280 Kreuzlingen, Switzerland",,41,Seetalstrasse,Kurzrickenbach,,TG,8280,Kreuzlingen,Bezirk Kreuzlingen,Thurgau,Switzerland,ch,1,1,1,1,© OpenStreetMap contributors,Open Database License,https://www.openstreetmap.org/copyright
71,"8 im Hard, 8197 Rafz",47.6000235,8.540598160867553,"Im Hard 8, 8197 Rafz, Switzerland",,8,Im Hard,,,,8197,Rafz,Bezirk Bülach,Zurich,Switzerland,ch,1,1,1,1,© OpenStreetMap contributors,Open Database License,https://www.openstreetmap.org/copyright
72,"Hauptstrasse 75, 8362 Balterswil",47.457454150000004,8.944909926807615,"Coffee24 GmbH, Hauptstrasse 75, 8362 Bichelsee-Balterswil, Switzerland",Coffee24 GmbH,75,Hauptstrasse,,,TG,8362,Bichelsee-Balterswil,Bezirk Münchwilen,Thurgau,Switzerland,ch,1,1,1,1,© OpenStreetMap contributors,Open Database License,https://www.openstreetmap.org/copyright
73,"Toggenburgerstrasse 10a, 9602 Bazenheid",47.4092321,9.0703215,"Toggenburgerstrasse 10a, 9602 Kirchberg (SG), Switzerland",,10a,Toggenburgerstrasse,,,,9602,Kirchberg (SG),Wahlkreis Toggenburg,St. Gallen,Switzerland,ch,1,1,1,1,© OpenStreetMap contributors,Open Database License,https://www.openstreetmap.org/copyright
74,"Birmensdorferstrasse 25, 8902 Urdorf",47.3915998,8.4184848,"Birmensdorferstrasse 25, 8902 Urdorf, Switzerland",Birmensdorferstrasse,25,Birmensdorferstrasse,,,,8902,Urdorf,Bezirk Dietikon,Zurich,Switzerland,ch,0.75,1,1,0.75,© OpenStreetMap contributors,Open Database License,https://www.openstreetmap.org/copyright
75,"Pfäffikerstrasse 36, 8610 Uster ZH",47.3582903,8.7289971,"Pfäffikerstrasse 36, 8610 Uster, Switzerland",,36,Pfäffikerstrasse,,,,8610,Uster,Bezirk Uster,Zurich,Switzerland,ch,1,1,1,1,© OpenStreetMap contributors,Open Database License,https://www.openstreetmap.org/copyright
76,"Franzosenstrasse 26, 6423 Seewen SZ",47.0229359,8.6337789,"Franzosenstrasse 26, 6423 Schwyz, Switzerland",,26,Franzosenstrasse,Rösslimatt,,SZ,6423,Schwyz,Schwyz,Schwyz,Switzerland,ch,1,1,1,1,© OpenStreetMap contributors,Open Database License,https://www.openstreetmap.org/copyright
77,"Sinserstrasse 400, 6330 Cham ZG",47.196558,8.4350498,"BP, Sinserstrasse 400, 6330 Cham, Switzerland",BP,400,Sinserstrasse,,,ZG,6330,Cham,,Zug,Switzerland,ch,1,1,1,1,© OpenStreetMap contributors,Open Database License,https://www.openstreetmap.org/copyright
78,"Sinserstrasse 400, 6330 Cham ZG",47.196558,8.4350498,"BP, Sinserstrasse 400, 6330 Cham, Switzerland",BP,400,Sinserstrasse,,,ZG,6330,Cham,,Zug,Switzerland,ch,1,1,1,1,© OpenStreetMap contributors,Open Database License,https://www.openstreetmap.org/copyright
79,"Sinserstrasse 400, 6330 Cham ZG",47.196558,8.4350498,"BP, Sinserstrasse 400, 6330 Cham, Switzerland",BP,400,Sinserstrasse,,,ZG,6330,Cham,,Zug,Switzerland,ch,1,1,1,1,© OpenStreetMap contributors,Open Database License,https://www.openstreetmap.org/copyright
80,"Grubenstrasse 12, 8620 Wetzikon",47.314556100000004,8.79695586846977,"Auto Top Discount, Grubenstrasse 12, 8620 Wetzikon (ZH), Switzerland",Auto Top Discount,12,Grubenstrasse,,Unterwetzikon,,8620,Wetzikon (ZH),Bezirk Hinwil,Zurich,Switzerland,ch,1,1,1,1,© OpenStreetMap contributors,Open Database License,https://www.openstreetmap.org/copyright
81,"Im Vorderasp  4, 8154 Oberglatt",47.481613,8.50358,"Im Vorderasp 4, 8154 Oberglatt, Switzerland",,4,Im Vorderasp,Oberglatt,,,8154,Oberglatt,Dielsdorf,Zurich,Switzerland,ch,1,1,1,1,© OpenAddresses contributors,BSD-3-Clause License,
82,"Feldstrasse 78, 8180 Bülach",47.5093758,8.538772346233385,"Feldstrasse 78, 8180 Bülach, Switzerland",,78,Feldstrasse,,,,8180,Bülach,Bezirk Bülach,Zurich,Switzerland,ch,1,1,1,1,© OpenStreetMap contributors,Open Database License,https://www.openstreetmap.org/copyright
83,"Wahligenstrasse, 6023 Rothenburg",47.0941694,8.2445513,"Wahligenstrasse, 6023 Rothenburg, Switzerland",Wahligenstrasse,,Wahligenstrasse,,Wahligen,,6023,Rothenburg,,Lucerne,Switzerland,ch,1,1,1,,© OpenStreetMap contributors,Open Database License,https://www.openstreetmap.org/copyright
84,"Seetalstrasse 32, 6020 Emmenbrücke",47.073131,8.288554,"Seetalstrasse 32, 6021 Emmen, Switzerland",,32,Seetalstrasse,Meierhöfli,Emmenbrücke,,6021,Emmen,Hochdorf,Lucerne,Switzerland,ch,1,1,1,1,© OpenAddresses contributors,BSD-3-Clause License,
85,"Bergermoosstr.10, 8902 Urdorf",47.369463999999994,8.422281958569492,"Bergermoosstrasse 10, 8902 Urdorf, Switzerland",,10,Bergermoosstrasse,,,,8902,Urdorf,Bezirk Dietikon,Zurich,Switzerland,ch,1,1,1,1,© OpenStreetMap contributors,Open Database License,https://www.openstreetmap.org/copyright
86,"Schlagstrasse 99, 6430 Schwyz",47.0331027,8.644999359273012,"Schlagstrasse 99, 6430 Schwyz, Switzerland",,99,Schlagstrasse,Achermatt,,SZ,6430,Schwyz,Schwyz,Schwyz,Switzerland,ch,1,1,1,1,© OpenStreetMap contributors,Open Database License,https://www.openstreetmap.org/copyright
87,"Mattackerstrasse, 8052 zürich",47.4260385,8.553038,"Mattackerstrasse, 8052 Zurich, Switzerland",Mattackerstrasse,,Mattackerstrasse,,Seebach,,8052,Zurich,District Zurich,Zurich,Switzerland,ch,1,1,1,,© OpenStreetMap contributors,Open Database License,https://www.openstreetmap.org/copyright
88,"Klausmattstrasse 1, 6038 Gisikon LU",47.1222886,8.396513,"Klausmattstrasse 1, 6038 Gisikon, Switzerland",Klausmattstrasse,1,Klausmattstrasse,Blumenhof,,,6038,Gisikon,,Lucerne,Switzerland,ch,0.5,1,1,0,© OpenStreetMap contributors,Open Database License,https://www.openstreetmap.org/copyright
89,"Feldstrasse 78, 8180 Bülach",47.5093758,8.538772346233385,"Feldstrasse 78, 8180 Bülach, Switzerland",,78,Feldstrasse,,,,8180,Bülach,Bezirk Bülach,Zurich,Switzerland,ch,1,1,1,1,© OpenStreetMap contributors,Open Database License,https://www.openstreetmap.org/copyright
90,"Birren 8, 5703 Seon",47.3614265,8.164042018421053,"Birren 8, 5703 Seon, Switzerland",,8,Birren,,,AG,5703,Seon,Bezirk Lenzburg,Aargau,Switzerland,ch,1,1,1,1,© OpenStreetMap contributors,Open Database License,https://www.openstreetmap.org/copyright
91,"Ifangstrasse 12A, 8603 Schwerzenbach",47.38287435,8.663132962844035,"Ifangstrasse 12a, 8603 Schwerzenbach, Switzerland",,12a,Ifangstrasse,,,,8603,Schwerzenbach,Bezirk Uster,Zurich,Switzerland,ch,1,1,1,1,© OpenStreetMap contributors,Open Database License,https://www.openstreetmap.org/copyright
92,"Im Schossacher 22, 8600 Dübendorf",47.39312655,8.641033416247382,"Im Schossacher 22, 8600 Dübendorf, Switzerland",,22,Im Schossacher,Im Schossacher,Gfenn,,8600,Dübendorf,Bezirk Uster,Zurich,Switzerland,ch,1,1,1,1,© OpenStreetMap contributors,Open Database License,https://www.openstreetmap.org/copyright
93,"Korbackerweg 27, 5502 Hunzenschwil AG",47.3858765,8.1283795,"Korbackerweg 27, 5502 Hunzenschwil, Switzerland",Korbackerweg,27,Korbackerweg,,,AG,5502,Hunzenschwil,Bezirk Lenzburg,Aargau,Switzerland,ch,0.75,1,1,0.75,© OpenStreetMap contributors,Open Database License,https://www.openstreetmap.org/copyright
94,"Station-West 2a, 6023 Rothenburg",47.085730999999996,8.25032415,"Station-West 2a, 6023 Rothenburg, Switzerland",,2a,Station-West,,Giebel,,6023,Rothenburg,,Lucerne,Switzerland,ch,1,1,1,1,© OpenStreetMap contributors,Open Database License,https://www.openstreetmap.org/copyright
95,"Lättichstrasse 6, 6340 Baar",47.1988243,8.5383703,"Lättichstrasse 6, 6340 Baar, Switzerland",Lättichstrasse,6,Lättichstrasse,,,ZG,6340,Baar,,Zug,Switzerland,ch,0.75,1,1,0.75,© OpenStreetMap contributors,Open Database License,https://www.openstreetmap.org/copyright
96,"Breitwies 5, 5420 Ehrendingen",47.491156450000005,8.338766042845634,"Breitwies 5, 5420 Ehrendingen, Switzerland",,5,Breitwies,Oberehrendingen,,AG,5420,Ehrendingen,Bezirk Baden,Aargau,Switzerland,ch,1,1,1,1,© OpenStreetMap contributors,Open Database License,https://www.openstreetmap.org/copyright
97,"Witzbergstrasse 5k, 8330 Pfäffikon ZH",47.3706455,8.773544448268927,"Witzbergstrasse 5, 8330 Pfäffikon, Switzerland",,5,Witzbergstrasse,Mattenquartier,,,8330,Pfäffikon,Bezirk Pfäffikon,Zurich,Switzerland,ch,0.95,1,1,0.95,© OpenStreetMap contributors,Open Database License,https://www.openstreetmap.org/copyright
98,"Buzibachstrasse 47, 6023 Rothenburg",47.08984155,8.253654967886781,"Buzibachstrasse 47, 6023 Rothenburg, Switzerland",,47,Buzibachstrasse,,Unterwahligen,,6023,Rothenburg,,Lucerne,Switzerland,ch,1,1,1,1,© OpenStreetMap contributors,Open Database License,https://www.openstreetmap.org/copyright
99,"Im Schossacher 22, 8600 Dübendorf",47.39312655,8.641033416247382,"Im Schossacher 22, 8600 Dübendorf, Switzerland",,22,Im Schossacher,Im Schossacher,Gfenn,,8600,Dübendorf,Bezirk Uster,Zurich,Switzerland,ch,1,1,1,1,© OpenStreetMap contributors,Open Database License,https://www.openstreetmap.org/copyright
100,"Buzibachstrasse 47, 6023 Rothenburg",47.08984155,8.253654967886781,"Buzibachstrasse 47, 6023 Rothenburg, Switzerland",,47,Buzibachstrasse,,Unterwahligen,,6023,Rothenburg,,Lucerne,Switzerland,ch,1,1,1,1,© OpenStreetMap contributors,Open Database License,https://www.openstreetmap.org/copyright
101,"Brüelmattstrasse 8, 6221 Rickenbach LU",47.222158300000004,8.1595072848682,"Brüelmattstrasse 8, 6221 Rickenbach, Switzerland",,8,Brüelmattstrasse,,,,6221,Rickenbach,,Lucerne,Switzerland,ch,1,1,1,1,© OpenStreetMap contributors,Open Database License,https://www.openstreetmap.org/copyright
102,"Stelzstrasse 3, 9500 Wil",47.4402522,9.0543537,"Stelzstrasse 3, 9500 Wilen (TG), Switzerland",,3,Stelzstrasse,Sommerau,,,9500,Wilen (TG),Wahlkreis Toggenburg,St. Gallen,Switzerland,ch,1,1,1,1,© OpenStreetMap contributors,Open Database License,https://www.openstreetmap.org/copyright
103,"Suhrenmattstrasse 51, 5035 Unterentfelden",47.36208055,8.051747618399064,"Suhrenmattstrasse 51, 5035 Unterentfelden, Switzerland",,51,Suhrenmattstrasse,,,AG,5035,Unterentfelden,Bezirk Aarau,Aargau,Switzerland,ch,1,1,1,1,© OpenStreetMap contributors,Open Database License,https://www.openstreetmap.org/copyright
104,"Buzibachstrasse 47, 6023 Rothenburg",47.08984155,8.253654967886781,"Buzibachstrasse 47, 6023 Rothenburg, Switzerland",,47,Buzibachstrasse,,Unterwahligen,,6023,Rothenburg,,Lucerne,Switzerland,ch,1,1,1,1,© OpenStreetMap contributors,Open Database License,https://www.openstreetmap.org/copyright
105,"Buzibachstrasse 47, 6023 Rothenburg",47.08984155,8.253654967886781,"Buzibachstrasse 47, 6023 Rothenburg, Switzerland",,47,Buzibachstrasse,,Unterwahligen,,6023,Rothenburg,,Lucerne,Switzerland,ch,1,1,1,1,© OpenStreetMap contributors,Open Database License,https://www.openstreetmap.org/copyright
106,"Ruessenstrasse 13, 6340 Baar",47.213493,8.565331,"Ruessenstrasse 13, 6340 Baar, Switzerland",,13,Ruessenstrasse,Baar,,ZG,6340,Baar,Zug,Zug,Switzerland,ch,1,1,1,1,© OpenAddresses contributors,BSD-3-Clause License,
107,"Bahnhofstrasse 18, 5242 Lupfig",47.4417094,8.2068989,"Bahnhofstrasse 18, 5242 Lupfig, Switzerland",,18,Bahnhofstrasse,,,AG,5242,Lupfig,Bezirk Brugg,Aargau,Switzerland,ch,1,1,1,1,© OpenStreetMap contributors,Open Database License,https://www.openstreetmap.org/copyright
108,"Brunnenwiesenstrasse 17, 8172 Niederglatt",47.498255,8.493288,"Brunnenwiesenstrasse 17, 8172 Niederglatt, Switzerland",,17,Brunnenwiesenstrasse,Niederglatt,,,8172,Niederglatt,Dielsdorf,Zurich,Switzerland,ch,1,1,1,1,© OpenAddresses contributors,BSD-3-Clause License,
109,"Zürichstrasse 72, 8840 Einsiedeln",47.1382892,8.7463756,"Zürichstrasse 72, 8840 Einsiedeln, Switzerland",,72,Zürichstrasse,,,SZ,8840,Einsiedeln,Einsiedeln,Schwyz,Switzerland,ch,1,1,1,1,© OpenStreetMap contributors,Open Database License,https://www.openstreetmap.org/copyright
110,"Sägereistrasse 3, 8500 Frauenfeld",47.5652701,8.908583,"Sägereistrasse 3, 8501 Frauenfeld, Switzerland",Sägereistrasse,3,Sägereistrasse,Langdorf,,TG,8501,Frauenfeld,Bezirk Frauenfeld,Thurgau,Switzerland,ch,0.5,1,1,0,© OpenStreetMap contributors,Open Database License,https://www.openstreetmap.org/copyright
111,"Franzosenstrasse 26, 6423 Seewen SZ",47.0229359,8.6337789,"Franzosenstrasse 26, 6423 Schwyz, Switzerland",,26,Franzosenstrasse,Rösslimatt,,SZ,6423,Schwyz,Schwyz,Schwyz,Switzerland,ch,1,1,1,1,© OpenStreetMap contributors,Open Database License,https://www.openstreetmap.org/copyright
112,"Neuhausstrasse 42, 9542 Münchwilen TG",47.4718644,9.0078756,"Neuhausstrasse 42, 9542 Münchwilen (TG), Switzerland",Neuhausstrasse,42,Neuhausstrasse,,,TG,9542,Münchwilen (TG),Bezirk Münchwilen,Thurgau,Switzerland,ch,0.5,1,1,0,© OpenStreetMap contributors,Open Database License,https://www.openstreetmap.org/copyright
113,"Neuhausstrasse 42, 9542 Münchwilen TG",47.4718644,9.0078756,"Neuhausstrasse 42, 9542 Münchwilen (TG), Switzerland",Neuhausstrasse,42,Neuhausstrasse,,,TG,9542,Münchwilen (TG),Bezirk Münchwilen,Thurgau,Switzerland,ch,0.5,1,1,0,© OpenStreetMap contributors,Open Database License,https://www.openstreetmap.org/copyright
114,"Neuhausstrasse 42, 9542 Münchwilen TG",47.4718644,9.0078756,"Neuhausstrasse 42, 9542 Münchwilen (TG), Switzerland",Neuhausstrasse,42,Neuhausstrasse,,,TG,9542,Münchwilen (TG),Bezirk Münchwilen,Thurgau,Switzerland,ch,0.5,1,1,0,© OpenStreetMap contributors,Open Database License,https://www.openstreetmap.org/copyright
115,"Bahnhofstrasse 36, 5322 Koblenz",47.602961300000004,8.228181336866882,"Bahnhofstrasse 36, 5322 Koblenz, Switzerland",,36,Bahnhofstrasse,,,AG,5322,Koblenz,Bezirk Zurzach,Aargau,Switzerland,ch,1,1,1,1,© OpenStreetMap contributors,Open Database License,https://www.openstreetmap.org/copyright
116,"Buholzstrasse 40, 6032 Emmen",47.09282805,8.318723508316967,"Buholzstrasse 40, 6032 Emmen, Switzerland",,40,Buholzstrasse,,,,6032,Emmen,,Lucerne,Switzerland,ch,1,1,1,1,© OpenStreetMap contributors,Open Database License,https://www.openstreetmap.org/copyright
117,"Neue Winterthurerstrasse 5, 8303 Bassersdorf",47.42858205,8.64438355,"Neue Winterthurerstrasse 5, 8303 Bassersdorf, Switzerland",,5,Neue Winterthurerstrasse,,,,8303,Bassersdorf,Bezirk Bülach,Zurich,Switzerland,ch,1,1,1,1,© OpenStreetMap contributors,Open Database License,https://www.openstreetmap.org/copyright
118,"Sägereistrasse 3, 8500 Frauenfeld",47.5652701,8.908583,"Sägereistrasse 3, 8501 Frauenfeld, Switzerland",Sägereistrasse,3,Sägereistrasse,Langdorf,,TG,8501,Frauenfeld,Bezirk Frauenfeld,Thurgau,Switzerland,ch,0.5,1,1,0,© OpenStreetMap contributors,Open Database License,https://www.openstreetmap.org/copyright
119,"Langfeldstrasse 10, 9200 Gossau",47.423949,9.242206,"Langfeldstrasse 10, 9201 Gossau (SG), Switzerland",,10,Langfeldstrasse,Gossau,,,9201,Gossau (SG),St. Gallen,Saint Gallen,Switzerland,ch,1,1,1,1,© OpenAddresses contributors,BSD-3-Clause License,
120,"Buzibachstrasse 43, 6023 Rothenburg",47.090220599999995,8.255328500000005,"Buzibachstrasse 43, 6023 Rothenburg, Switzerland",,43,Buzibachstrasse,,Buzibach,,6023,Rothenburg,,Lucerne,Switzerland,ch,1,1,1,1,© OpenStreetMap contributors,Open Database License,https://www.openstreetmap.org/copyright
121,"Fischingerstrasse 69 (MIT NAVI 67), 8370 Sirnach",47.45702835,8.988666020369209,"Fischingerstrasse 69, 8370 Wiezikon b. Sirnach, Switzerland",,69,Fischingerstrasse,,,TG,8370,Wiezikon b. Sirnach,Bezirk Münchwilen,Thurgau,Switzerland,ch,0.9,1,1,1,© OpenStreetMap contributors,Open Database License,https://www.openstreetmap.org/copyright
122,"Industriestrasse 12, 6436 Ried (Muotathal)",46.9885276,8.701826379854182,"Industriestrasse 12, 6436 Muotathal, Switzerland",,12,Industriestrasse,,,SZ,6436,Muotathal,Schwyz,Schwyz,Switzerland,ch,1,1,1,1,© OpenStreetMap contributors,Open Database License,https://www.openstreetmap.org/copyright
123,"Industriestrasse 16, 5610 Wohlen",47.3520234,8.262550860151718,"Industriestrasse 16, 5610 Wohlen, Switzerland",,16,Industriestrasse,,,AG,5610,Wohlen,Bezirk Bremgarten,Aargau,Switzerland,ch,1,1,1,1,© OpenStreetMap contributors,Open Database License,https://www.openstreetmap.org/copyright
124,"Riedmattstrasse 8, 8153 Rümlang-Zürich",47.4616789,8.5244134,"Riedmattstrasse 8, 8153 Rümlang, Switzerland",,8,Riedmattstrasse,,,,8153,Rümlang,Bezirk Dielsdorf,Zurich,Switzerland,ch,1,1,1,1,© OpenStreetMap contributors,Open Database License,https://www.openstreetmap.org/copyright
125,"Gillhofstrasse 3, 8554 Bonau",47.582855,9.044261,"Gillhofstrasse 3, 8554 Bonau, Switzerland",,3,Gillhofstrasse,Wigoltingen,,TG,8554,Bonau,Weinfelden,Thurgau,Switzerland,ch,1,1,1,1,© OpenAddresses contributors,BSD-3-Clause License,
126,"Althardstrasse 298, 8105 Regensdorf ( Zürich )",47.445568,8.46092,"Althardstrasse 298, 8105 Regensdorf, Switzerland",,298,Althardstrasse,Regensdorf,,,8105,Regensdorf,Dielsdorf,Zurich,Switzerland,ch,1,1,1,1,© OpenAddresses contributors,BSD-3-Clause License,
127,8951 Fahrweid,47.4083023,8.4134385,"8951 Fahrweid (Weiningen (ZH)), Switzerland",,,,,,,8951,Weiningen (ZH),Bezirk Dietikon,Zurich,Switzerland,ch,1,1,,,© OpenStreetMap contributors,Open Database License,https://www.openstreetmap.org/copyright
128,"Fännstrasse 47, 6403 Küssnacht am Rigi",47.09926095,8.45070317868774,"Fännstrasse 47, 6403 Immensee, Switzerland",,47,Fännstrasse,,,SZ,6403,Immensee,Küssnacht,Schwyz,Switzerland,ch,0.95,1,1,1,© OpenStreetMap contributors,Open Database License,https://www.openstreetmap.org/copyright
129,"Wiessenstrasse 24, 5412 Gebenstorf",47.486005,8.242474,"Wiesenstrasse 24, 5412 Gebenstorf, Switzerland",,24,Wiesenstrasse,Gebenstorf,,AG,5412,Gebenstorf,Baden,Aargau,Switzerland,ch,1,1,1,1,© OpenAddresses contributors,BSD-3-Clause License,
130,"Grossmattstrasse 26, 8964 Rudolfstetten",47.375039,8.385757,"Grossmattstrasse 26, 8964 Rudolfstetten, Switzerland",,26,Grossmattstrasse,Rudolfstetten-Friedlisberg,,AG,8964,Rudolfstetten,Bremgarten,Aargau,Switzerland,ch,1,1,1,1,© OpenAddresses contributors,BSD-3-Clause License,
131,"Güterstr. 11, 8957 Spreitenbach",47.4284484,8.3600129,"Güterstrasse 11, 8957 Spreitenbach, Switzerland",,11,Güterstrasse,,Spreiti West,AG,8957,Spreitenbach,Bezirk Baden,Aargau,Switzerland,ch,1,1,1,1,© OpenStreetMap contributors,Open Database License,https://www.openstreetmap.org/copyright
132,"Frauenfelderstrasse 13, 8523 Hagenbuch",47.5053194,8.8938136,"Frauenfelderstrasse 13, 8523 Hagenbuch, Switzerland",Frauenfelderstrasse,13,Frauenfelderstrasse,,,,8523,Hagenbuch,Bezirk Winterthur,Zurich,Switzerland,ch,0.75,1,1,0.75,© OpenStreetMap contributors,Open Database License,https://www.openstreetmap.org/copyright
133,"Grossrietstrasse 5a, 8606 Nänikon...   (Zürich)",47.3731182,8.6822078,"Grossrietstrasse 5, 8606 Uster, Switzerland",Grossrietstrasse,5,Grossrietstrasse,,,,8606,Uster,Bezirk Uster,Zurich,Switzerland,ch,0.855,1,1,0.95,© OpenStreetMap contributors,Open Database License,https://www.openstreetmap.org/copyright
134,"Sihltalstrasse 111, 8135 Langnau am Albis",47.276936,8.5501657,"Sihltalstrasse 111, 8135 Langnau am Albis, Switzerland",Sihltalstrasse,111,Sihltalstrasse,Unterrengg / Schwyzerhof,,,8135,Langnau am Albis,Bezirk Horgen,Zurich,Switzerland,ch,0.75,1,1,0.75,© OpenStreetMap contributors,Open Database License,https://www.openstreetmap.org/copyright
135,"Rösslimattstrasse 46, 5033 Buchs AG",47.38872995,8.08106865808141,"Rösslimattstrasse 46, 5033 Buchs (AG), Switzerland",,46,Rösslimattstrasse,Usserdorf,,AG,5033,Buchs (AG),Bezirk Aarau,Aargau,Switzerland,ch,1,1,1,1,© OpenStreetMap contributors,Open Database License,https://www.openstreetmap.org/copyright
136,"Alte Winterthurerstrasse 11, 8309 Nürensdorf",47.446109,8.644134,"Alte Winterthurerstrasse 11, 8309 Nürensdorf, Switzerland",,11,Alte Winterthurerstrasse,Nürensdorf,,,8309,Nürensdorf,Bulach,Zurich,Switzerland,ch,1,1,1,1,© OpenStreetMap contributors,Open Database License,https://www.openstreetmap.org/copyright
137,"Rösslimattstrasse 46, 5033 Buchs AG",47.38872995,8.08106865808141,"Rösslimattstrasse 46, 5033 Buchs (AG), Switzerland",,46,Rösslimattstrasse,Usserdorf,,AG,5033,Buchs (AG),Bezirk Aarau,Aargau,Switzerland,ch,1,1,1,1,© OpenStreetMap contributors,Open Database License,https://www.openstreetmap.org/copyright
138,"Im Dörfli 25, 8706 Meilen",47.26400755,8.663978325947062,"Im Dörfli 25, 8706 Meilen, Switzerland",,25,Im Dörfli,,,,8706,Meilen,Bezirk Meilen,Zurich,Switzerland,ch,1,1,1,1,© OpenStreetMap contributors,Open Database License,https://www.openstreetmap.org/copyright
139,"Giessereistrasse 3, 8620 Wetzikon",47.326379,8.784567,"Giessereistrasse 3, 8621 Wetzikon (ZH), Switzerland",,3,Giessereistrasse,Wetzikon,Unterwetzikon,,8621,Wetzikon (ZH),Hinwil,Zurich,Switzerland,ch,1,1,1,1,© OpenAddresses contributors,BSD-3-Clause License,
140,"Waldhof 7, 8585 Langrickenbach",47.5847058,9.252117563074567,"7, 8585 Langrickenbach, Switzerland",,7,,,,TG,8585,Langrickenbach,Bezirk Kreuzlingen,Thurgau,Switzerland,ch,1,1,1,1,© OpenStreetMap contributors,Open Database License,https://www.openstreetmap.org/copyright
141,"Aarauerstrasse 56, 5116 Schinznach Bad",47.4428903,8.168114146377626,"Aarauerstrasse 56, 5116 Brugg, Switzerland",,56,Aarauerstrasse,,,AG,5116,Brugg,Bezirk Brugg,Aargau,Switzerland,ch,1,1,1,1,© OpenStreetMap contributors,Open Database License,https://www.openstreetmap.org/copyright
142,"Sihltalstrasse 111, 8135 Langnau am Albis",47.276936,8.5501657,"Sihltalstrasse 111, 8135 Langnau am Albis, Switzerland",Sihltalstrasse,111,Sihltalstrasse,Unterrengg / Schwyzerhof,,,8135,Langnau am Albis,Bezirk Horgen,Zurich,Switzerland,ch,0.75,1,1,0.75,© OpenStreetMap contributors,Open Database License,https://www.openstreetmap.org/copyright
143,"Industrieweg 8b, 8735 St. Gallenkappel",47.2520652,8.974867,"Industrieweg 8, 8735 Eschenbach (SG), Switzerland",,8,Industrieweg,,,,8735,Eschenbach (SG),Wahlkreis See-Gaster,St. Gallen,Switzerland,ch,0.95,1,1,0.95,© OpenStreetMap contributors,Open Database License,https://www.openstreetmap.org/copyright
144,"Riedackerstrasse 17, 8153 Rümlang (Zürich)",47.462648,8.524194,"Riedackerstrasse 17, 8153 Rümlang, Switzerland",,17,Riedackerstrasse,Rümlang,Reckenholz,,8153,Rümlang,Dielsdorf,Zurich,Switzerland,ch,1,1,1,1,© OpenAddresses contributors,BSD-3-Clause License,
145,"industrie str 6, 8604 Volketswil",47.38166579999999,8.666540085124762,"Industriestrasse 6, 8604 Volketswil, Switzerland",,6,Industriestrasse,,,,8604,Volketswil,Bezirk Uster,Zurich,Switzerland,ch,0.5625,1,0.5625,0.5625,© OpenStreetMap contributors,Open Database License,https://www.openstreetmap.org/copyright
146,"St. Gallerstrasse 97/99, 9200 Gossau SG",47.4167905,9.2539221,"St. Gallerstrasse, 9200 Gossau (SG), Switzerland",St. Gallerstrasse,,St. Gallerstrasse,,,,9200,Gossau (SG),Wahlkreis St. Gallen,St. Gallen,Switzerland,ch,0.8648648648648649,1,1,,© OpenStreetMap contributors,Open Database License,https://www.openstreetmap.org/copyright
147,"Wilerstrasse 45a, 9545 Wängi",47.49277475,8.974359577102362,"Wilerstrasse 45a, 9545 Wängi, Switzerland",,45a,Wilerstrasse,,,TG,9545,Wängi,Bezirk Münchwilen,Thurgau,Switzerland,ch,1,1,1,1,© OpenStreetMap contributors,Open Database License,https://www.openstreetmap.org/copyright
148,"Dorfstrasse 30, 5624 Bünzen",47.3080494,8.3214255,"Dorfstrasse 30, 5624 Bünzen, Switzerland",,30,Dorfstrasse,,Femelhof,AG,5624,Bünzen,Bezirk Muri,Aargau,Switzerland,ch,1,1,1,1,© OpenStreetMap contributors,Open Database License,https://www.openstreetmap.org/copyright
149,"Sankt Gallerstrasse 126, 8404 Winterthur",47.498128,8.748453,"St. Gallerstrasse 126, 8404 Winterthur, Switzerland",,126,St. Gallerstrasse,Winterthur,,,8404,Winterthur,Winterthur,Zurich,Switzerland,ch,1,1,1,1,© OpenAddresses contributors,BSD-3-Clause License,
150,"Sihltalstrasse 111, 8135 Langnau am Albis",47.276936,8.5501657,"Sihltalstrasse 111, 8135 Langnau am Albis, Switzerland",Sihltalstrasse,111,Sihltalstrasse,Unterrengg / Schwyzerhof,,,8135,Langnau am Albis,Bezirk Horgen,Zurich,Switzerland,ch,0.75,1,1,0.75,© OpenStreetMap contributors,Open Database License,https://www.openstreetmap.org/copyright
151,"St. Gallerstrasse 97/99, 9200 Gossau SG",47.4167905,9.2539221,"St. Gallerstrasse, 9200 Gossau (SG), Switzerland",St. Gallerstrasse,,St. Gallerstrasse,,,,9200,Gossau (SG),Wahlkreis St. Gallen,St. Gallen,Switzerland,ch,0.8648648648648649,1,1,,© OpenStreetMap contributors,Open Database License,https://www.openstreetmap.org/copyright
152,"HAUPTSTRASSE 82, 5054 KIRCHLEERAU AG",47.276545,8.061915,"Hauptstrasse 82, 5054 Kirchleerau, Switzerland",,82,Hauptstrasse,Kirchleerau,,AG,5054,Kirchleerau,Zofingen,Aargau,Switzerland,ch,0.3,0.3,0.3,0.3,© OpenStreetMap contributors,Open Database License,https://www.openstreetmap.org/copyright
153,"St. Gallerstrasse 97/99, 9200 Gossau SG",47.4167905,9.2539221,"St. Gallerstrasse, 9200 Gossau (SG), Switzerland",St. Gallerstrasse,,St. Gallerstrasse,,,,9200,Gossau (SG),Wahlkreis St. Gallen,St. Gallen,Switzerland,ch,0.8648648648648649,1,1,,© OpenStreetMap contributors,Open Database License,https://www.openstreetmap.org/copyright
154,"Marthalerstr. 9, 8463 Benken",47.6511794,8.6527307,"Garage Bolli, Marthalerstrasse 9, 8463 Benken (ZH), Switzerland",Garage Bolli,9,Marthalerstrasse,,,,8463,Benken (ZH),Bezirk Andelfingen,Zurich,Switzerland,ch,1,1,1,1,© OpenStreetMap contributors,Open Database License,https://www.openstreetmap.org/copyright
155,"Hauptstrasse 29, 5043 Holziken",47.32146805,8.036798962121416,"Hauptstrasse 29, 5043 Holziken, Switzerland",,29,Hauptstrasse,,,AG,5043,Holziken,Bezirk Kulm,Aargau,Switzerland,ch,1,1,1,1,© OpenStreetMap contributors,Open Database License,https://www.openstreetmap.org/copyright
156,8604 Volketswil,47.3898617,8.690503,"8604 Volketswil, Switzerland",,,,,,,8604,Volketswil,Bezirk Uster,Zurich,Switzerland,ch,1,1,,,© OpenStreetMap contributors,Open Database License,https://www.openstreetmap.org/copyright
157,8803 Rüschlikon,47.307465,8.5546421,"8803 Rüschlikon, Switzerland",,,,,,,8803,Rüschlikon,Bezirk Horgen,Zurich,Switzerland,ch,1,1,,,© OpenStreetMap contributors,Open Database License,https://www.openstreetmap.org/copyright
158,"Sagenbach 20, 6033 Buchrain",47.108672,8.344283,"Am Sagenbach 20, 6033 Buchrain, Switzerland",,20,Am Sagenbach,Buchrain,,,6033,Buchrain,Luzern-Land,Lucerne,Switzerland,ch,0.9,1,0.9,0.9,© OpenAddresses contributors,BSD-3-Clause License,
159,"Eschenstrasse 12, 6020 Emmen",47.0729014,8.288351505508475,"Eschenstrasse 12, 6021 Emmen, Switzerland",,12,Eschenstrasse,Meierhöfli,Emmenbrücke,,6021,Emmen,,Lucerne,Switzerland,ch,1,1,1,1,© OpenStreetMap contributors,Open Database License,https://www.openstreetmap.org/copyright
160,"Störenbergstrasse 12, 8265 Mammern",47.6431061,8.914556077399208,"Störenbergstrasse 12, 8265 Mammern, Switzerland",,12,Störenbergstrasse,,,TG,8265,Mammern,Bezirk Frauenfeld,Thurgau,Switzerland,ch,1,1,1,1,© OpenStreetMap contributors,Open Database License,https://www.openstreetmap.org/copyright
161,"Surhardweg 14, 5102 Rupperswil",47.4027283,8.1274477,"5102 Rupperswil, Switzerland",,,,,,AG,5102,Rupperswil,Bezirk Lenzburg,Aargau,Switzerland,ch,0.25,1,,,© OpenStreetMap contributors,Open Database License,https://www.openstreetmap.org/copyright
162,8832 Wollerau,47.1957261,8.7194595,"8832 Wollerau, Switzerland",,,,,,SZ,8832,Wollerau,Höfe,Schwyz,Switzerland,ch,1,1,,,© OpenStreetMap contributors,Open Database License,https://www.openstreetmap.org/copyright
163,"Glarnerstrasse 34, 8854 Siebnen",47.1755175,8.9005251,"Glarnerstrasse 34, 8854 Siebnen, Switzerland",Glarnerstrasse,34,Glarnerstrasse,,,SZ,8854,Siebnen,March,Schwyz,Switzerland,ch,0.75,1,1,0.75,© OpenStreetMap contributors,Open Database License,https://www.openstreetmap.org/copyright
164,"Emausstrasse 1, 5621 Zufikon",47.3437404,8.352368349999999,"Emausstrasse 1, 5621 Zufikon, Switzerland",,1,Emausstrasse,,Emaus,AG,5621,Zufikon,Bezirk Bremgarten,Aargau,Switzerland,ch,1,1,1,1,© OpenStreetMap contributors,Open Database License,https://www.openstreetmap.org/copyright
165,"Wägitalstrasse 18, 8854 Siebnen",47.172949,8.897782,"Wägitalstrasse 18, 8854 Siebnen, Switzerland",,18,Wägitalstrasse,Schübelbach,,SZ,8854,Siebnen,March,Schwyz,Switzerland,ch,1,1,1,1,© OpenAddresses contributors,BSD-3-Clause License,
166,"Zurlindenstrasse 218a, 8003 Zürich",47.37510605,8.514455069021583,"Zurlindenstrasse 218a, 8003 Zurich, Switzerland",,218a,Zurlindenstrasse,,Kreis 3,,8003,Zurich,District Zurich,Zurich,Switzerland,ch,1,1,1,1,© OpenStreetMap contributors,Open Database License,https://www.openstreetmap.org/copyright
167,"Sinserstrasse 400, 6330 Cham ZG",47.196558,8.4350498,"BP, Sinserstrasse 400, 6330 Cham, Switzerland",BP,400,Sinserstrasse,,,ZG,6330,Cham,,Zug,Switzerland,ch,1,1,1,1,© OpenStreetMap contributors,Open Database License,https://www.openstreetmap.org/copyright
168,"Güterstr. 11, 8957 Spreitenbach",47.4284484,8.3600129,"Güterstrasse 11, 8957 Spreitenbach, Switzerland",,11,Güterstrasse,,Spreiti West,AG,8957,Spreitenbach,Bezirk Baden,Aargau,Switzerland,ch,1,1,1,1,© OpenStreetMap contributors,Open Database License,https://www.openstreetmap.org/copyright
169,"Schäracher 1, 6232 Geuensee",47.19291455,8.112120803736083,"Schäracher 1, 6232 Geuensee, Switzerland",,1,Schäracher,,Eschenhof,,6232,Geuensee,,Lucerne,Switzerland,ch,1,1,1,1,© OpenStreetMap contributors,Open Database License,https://www.openstreetmap.org/copyright
170,8951 Fahrweid,47.4083023,8.4134385,"8951 Fahrweid (Weiningen (ZH)), Switzerland",,,,,,,8951,Weiningen (ZH),Bezirk Dietikon,Zurich,Switzerland,ch,1,1,,,© OpenStreetMap contributors,Open Database License,https://www.openstreetmap.org/copyright
171,"Sulzerstrasse 34, 6289 Hämikon",47.236022250000005,8.27741908017462,"Sulzerstrasse 34, 6289 Hämikon, Switzerland",,34,Sulzerstrasse,Dorf,Sonnenhof,,6289,Hämikon,,Lucerne,Switzerland,ch,1,1,1,1,© OpenStreetMap contributors,Open Database License,https://www.openstreetmap.org/copyright
172,"Oholten 3, 5703 Seon",47.3551668,8.1699036,"Oholten 3, 5703 Seon, Switzerland",,3,Oholten,,,AG,5703,Seon,Bezirk Lenzburg,Aargau,Switzerland,ch,1,1,1,1,© OpenStreetMap contributors,Open Database License,https://www.openstreetmap.org/copyright
173,"Zentralstrasse 9, 6036 Dierikon",47.0961766,8.366208906420571,"Zentralstrasse 9, 6036 Dierikon, Switzerland",,9,Zentralstrasse,,,,6036,Dierikon,,Lucerne,Switzerland,ch,1,1,1,1,© OpenStreetMap contributors,Open Database License,https://www.openstreetmap.org/copyright
174,"Riedmattstrasse 8, 8153 Rümlang-Zürich",47.4616789,8.5244134,"Riedmattstrasse 8, 8153 Rümlang, Switzerland",,8,Riedmattstrasse,,,,8153,Rümlang,Bezirk Dielsdorf,Zurich,Switzerland,ch,1,1,1,1,© OpenStreetMap contributors,Open Database License,https://www.openstreetmap.org/copyright
175,"Werkstrasse 27, 8222 Beringen SH",47.694024,8.568934,"Werkstrasse 27, 8223 Guntmadingen, Switzerland",,27,Werkstrasse,Beringen,Industriegebiet Beringen (Zone A),SH,8223,Guntmadingen,Schaffhausen,Schaffhausen,Switzerland,ch,1,1,1,1,© OpenAddresses contributors,BSD-3-Clause License,
176,"Studacherstrasse 7a, 5416 Kirchdorf AG",47.4932572,8.2749672,"Studacherstrasse 7a, 5416 Kirchdorf, Switzerland",,7a,Studacherstrasse,,,AG,5416,Kirchdorf,Bezirk Baden,Aargau,Switzerland,ch,1,1,1,1,© OpenStreetMap contributors,Open Database License,https://www.openstreetmap.org/copyright
177,"Maurenstrasse 5, 8575 Bürglen TG",47.5515361,9.1530409,"Maurenstrasse 5, 8575 Istighofen, Switzerland",Maurenstrasse,5,Maurenstrasse,,,TG,8575,Istighofen,Bezirk Weinfelden,Thurgau,Switzerland,ch,0.75,1,1,0.75,© OpenStreetMap contributors,Open Database License,https://www.openstreetmap.org/copyright
178,"Mühlentalstrasse 261, 8200 Schaffhausen",47.714062,8.631263,"Mühlentalstrasse 261, 8200 Schaffhausen, Switzerland",,261,Mühlentalstrasse,Schaffhausen,,SH,8200,Schaffhausen,Schaffhausen,Schaffhausen,Switzerland,ch,1,1,1,1,© OpenAddresses contributors,BSD-3-Clause License,
179,"Alter Hubelweg 3, 6331 Hünenberg",47.178123,8.4328,"Alter Hubelweg 3, 6331 Hünenberg, Switzerland",,3,Alter Hubelweg,Hünenberg,,ZG,6331,Hünenberg,Zug,Zug,Switzerland,ch,1,1,1,1,© OpenAddresses contributors,BSD-3-Clause License,
180,8802 Kilchberg,47.3225316,8.5459483,"8802 Kilchberg (ZH), Switzerland",,,,,,,8802,Kilchberg (ZH),Bezirk Horgen,Zurich,Switzerland,ch,1,1,,,© OpenStreetMap contributors,Open Database License,https://www.openstreetmap.org/copyright
181,"St. Gallerstrasse 41, 8716 Schmerikon",47.22763275,8.95643714655985,"St. Gallerstrasse 41, 8716 Schmerikon, Switzerland",,41,St. Gallerstrasse,,,,8716,Schmerikon,Wahlkreis See-Gaster,St. Gallen,Switzerland,ch,1,1,1,1,© OpenStreetMap contributors,Open Database License,https://www.openstreetmap.org/copyright
182,"Riedmattstrasse 5, 8153 Rümlang Kantons Zürich",47.46093375,8.52569178286458,"Carroserie Stocker, Riedmattstrasse 5, 8153 Rümlang, Switzerland",Carroserie Stocker,5,Riedmattstrasse,,,,8153,Rümlang,Bezirk Dielsdorf,Zurich,Switzerland,ch,1,1,1,1,© OpenStreetMap contributors,Open Database License,https://www.openstreetmap.org/copyright
183,"Hauptstrasse 77, 8552 Felben-Wellhausen",47.5838119,8.9475842,"Hauptstrasse 77, 8552 Felben-Wellhausen, Switzerland",,77,Hauptstrasse,,,TG,8552,Felben-Wellhausen,Bezirk Frauenfeld,Thurgau,Switzerland,ch,1,1,1,1,© OpenStreetMap contributors,Open Database License,https://www.openstreetmap.org/copyright
184,"Auwiesenstrasse 2, 8406 Winterthur",47.4850845,8.709844757565726,"Auwiesenstrasse 2, 8406 Winterthur, Switzerland",,2,Auwiesenstrasse,Eichliacker,Töss,,8406,Winterthur,Bezirk Winterthur,Zurich,Switzerland,ch,1,1,1,1,© OpenStreetMap contributors,Open Database License,https://www.openstreetmap.org/copyright
185,9200 Gossau,47.415224462,9.25338476,"9200 Gossau (SG), Switzerland",,,,,,,9200,Gossau (SG),Wahlkreis St. Gallen,St. Gallen,Switzerland,ch,1,1,,,© OpenStreetMap contributors,Open Database License,https://www.openstreetmap.org/copyright
186,"Althardstrasse 298, 8105 Regensdorf ( Zürich )",47.445568,8.46092,"Althardstrasse 298, 8105 Regensdorf, Switzerland",,298,Althardstrasse,Regensdorf,,,8105,Regensdorf,Dielsdorf,Zurich,Switzerland,ch,1,1,1,1,© OpenAddresses contributors,BSD-3-Clause License,
187,8134 Adliswil,47.3117624,8.52491,"8134 Adliswil, Switzerland",,,,,,,8134,Adliswil,Bezirk Horgen,Zurich,Switzerland,ch,1,1,,,© OpenStreetMap contributors,Open Database License,https://www.openstreetmap.org/copyright
188,"Bahnhofstrasse 50, 9242 Oberuzwil",47.43404795,9.128828542772137,"Bahnhofstrasse 50, 9242 Oberuzwil, Switzerland",,50,Bahnhofstrasse,,,,9242,Oberuzwil,Wahlkreis Wil,St. Gallen,Switzerland,ch,1,1,1,1,© OpenStreetMap contributors,Open Database License,https://www.openstreetmap.org/copyright
189,"Rösslimattstrasse 46, 5033 Buchs AG",47.38872995,8.08106865808141,"Rösslimattstrasse 46, 5033 Buchs (AG), Switzerland",,46,Rösslimattstrasse,Usserdorf,,AG,5033,Buchs (AG),Bezirk Aarau,Aargau,Switzerland,ch,1,1,1,1,© OpenStreetMap contributors,Open Database License,https://www.openstreetmap.org/copyright
190,"Oberneuhofstrasse 13, 6340 Baar",47.18679885,8.5167778,"Oberneuhofstrasse 13, 6340 Baar, Switzerland",,13,Oberneuhofstrasse,,,ZG,6340,Baar,,Zug,Switzerland,ch,1,1,1,1,© OpenStreetMap contributors,Open Database License,https://www.openstreetmap.org/copyright
191,"Maurenstrasse 5, 8575 Bürglen TG",47.5515361,9.1530409,"Maurenstrasse 5, 8575 Istighofen, Switzerland",Maurenstrasse,5,Maurenstrasse,,,TG,8575,Istighofen,Bezirk Weinfelden,Thurgau,Switzerland,ch,0.75,1,1,0.75,© OpenStreetMap contributors,Open Database License,https://www.openstreetmap.org/copyright
192,"Flurlingerweg 15, 8245 Feuerthalen",47.687326049999996,8.64315333817174,"Flurlingerweg 15, 8245 Langwiesen, Switzerland",,15,Flurlingerweg,,,,8245,Langwiesen,Bezirk Andelfingen,Zurich,Switzerland,ch,1,1,1,1,© OpenStreetMap contributors,Open Database License,https://www.openstreetmap.org/copyright
193,"Hauptstr. 96, 5032 Aarau Rohr",47.404485,8.09083,"Hauptstrasse 96, 5032 Aarau Rohr, Switzerland",,96,Hauptstrasse,Aarau,,AG,5032,Aarau Rohr,Aarau,Aargau,Switzerland,ch,1,1,1,1,© OpenAddresses contributors,BSD-3-Clause License,
194,"Püntstrasse 4, 8543 Gundetswil",47.54031155,8.818665614419562,"Püntstrasse 4, 8543 Gundetswil, Switzerland",,4,Püntstrasse,,,,8543,Gundetswil,Bezirk Winterthur,Zurich,Switzerland,ch,1,1,1,1,© OpenStreetMap contributors,Open Database License,https://www.openstreetmap.org/copyright
195,8953 Dietikon,47.4068827,8.4020894,"8953 Dietikon, Switzerland",,,,,,,8953,Dietikon,Bezirk Dietikon,Zurich,Switzerland,ch,1,1,,,© OpenStreetMap contributors,Open Database License,https://www.openstreetmap.org/copyright
196,"Landstrasse 10, 5300 Turgi",47.4860697,8.2668932,"Landstrasse 10, 5300 Baden, Switzerland",,10,Landstrasse,,,AG,5300,Baden,Bezirk Baden,Aargau,Switzerland,ch,1,1,1,1,© OpenStreetMap contributors,Open Database License,https://www.openstreetmap.org/copyright
197,"Rietstrasse 16, 8108 Dällikon (ZH)",47.44856995000001,8.430825621026617,"Rietstrasse 16, 8108 Dällikon, Switzerland",,16,Rietstrasse,,,,8108,Dällikon,Bezirk Dielsdorf,Zurich,Switzerland,ch,1,1,1,1,© OpenStreetMap contributors,Open Database License,https://www.openstreetmap.org/copyright
198,"Scherzerstrasse 4, 5116 Schinznach-Bad",47.4504227,8.1695062,"Scherzerstrasse 4, 5116 Brugg, Switzerland",,4,Scherzerstrasse,,,AG,5116,Brugg,Bezirk Brugg,Aargau,Switzerland,ch,1,1,1,1,© OpenStreetMap contributors,Open Database License,https://www.openstreetmap.org/copyright
199,"Brunnenwiesenstrasse 17, 8172 Niederglatt",47.498255,8.493288,"Brunnenwiesenstrasse 17, 8172 Niederglatt, Switzerland",,17,Brunnenwiesenstrasse,Niederglatt,,,8172,Niederglatt,Dielsdorf,Zurich,Switzerland,ch,1,1,1,1,© OpenAddresses contributors,BSD-3-Clause License,
200,"Allmendstrasse 24, 8427 Rorbas",47.5325407,8.580674895757967,"Allmendstrasse 24, 8427 Rorbas, Switzerland",,24,Allmendstrasse,Im Geissenrain,,,8427,Rorbas,Bezirk Bülach,Zurich,Switzerland,ch,1,1,1,1,© OpenStreetMap contributors,Open Database License,https://www.openstreetmap.org/copyright
201,"Alpenblickstrasse 9a/b, 8853 Lachen",47.1906067,8.8559394,"Alpenblickstrasse, 8853 Lachen, Switzerland",Alpenblickstrasse,,Alpenblickstrasse,Oberdorf,,SZ,8853,Lachen,March,Schwyz,Switzerland,ch,0.5,1,1,,© OpenStreetMap contributors,Open Database License,https://www.openstreetmap.org/copyright
202,"Bergermoosstr.10, 8902 Urdorf",47.369463999999994,8.422281958569492,"Bergermoosstrasse 10, 8902 Urdorf, Switzerland",,10,Bergermoosstrasse,,,,8902,Urdorf,Bezirk Dietikon,Zurich,Switzerland,ch,1,1,1,1,© OpenStreetMap contributors,Open Database License,https://www.openstreetmap.org/copyright
203,8800 Thalwil,47.2944325,8.5635762,"8800 Thalwil, Switzerland",,,,,,,8800,Thalwil,Bezirk Horgen,Zurich,Switzerland,ch,1,1,,,© OpenStreetMap contributors,Open Database License,https://www.openstreetmap.org/copyright
204,8500 Frauenfeld,47.555284549,8.890225435,"8500 Frauenfeld, Switzerland",,,,,,TG,8500,Frauenfeld,Bezirk Frauenfeld,Thurgau,Switzerland,ch,1,1,,,© OpenStreetMap contributors,Open Database License,https://www.openstreetmap.org/copyright
205,8700 Küsnacht,47.3176276,8.5830859,"8700 Küsnacht (ZH), Switzerland",,,,,,,8700,Küsnacht (ZH),Bezirk Meilen,Zurich,Switzerland,ch,1,1,,,© OpenStreetMap contributors,Open Database License,https://www.openstreetmap.org/copyright
206,8240 Thayngen,47.748866435,8.70907085,"8240 Thayngen, Switzerland",,,,,,SH,8240,Thayngen,,Schaffhausen,Switzerland,ch,1,1,,,© OpenStreetMap contributors,Open Database License,https://www.openstreetmap.org/copyright
207,8600 Dübendorf,47.3969942,8.6185666,"8600 Dübendorf, Switzerland",,,,,,,8600,Dübendorf,Bezirk Uster,Zurich,Switzerland,ch,1,1,,,© OpenStreetMap contributors,Open Database License,https://www.openstreetmap.org/copyright
208,8632 Tann,47.2713759,8.8535852,"8632 Tann (Tann), Switzerland",,,,,,,8632,Tann,Bezirk Hinwil,Zurich,Switzerland,ch,1,1,,,© OpenStreetMap contributors,Open Database License,https://www.openstreetmap.org/copyright
209,"Untere Bahnhofstrasse 31, 8340 Hinwil ZH",47.30018,8.836204,"Untere Bahnhofstrasse 31, 8340 Hinwil, Switzerland",,31,Untere Bahnhofstrasse,Hinwil,,,8340,Hinwil,Hinwil,Zurich,Switzerland,ch,1,1,1,1,© OpenAddresses contributors,BSD-3-Clause License,
210,"Obere Bahnhostrasse 16, 5507 Mellingen",47.429287,8.272937,"Obere Bahnhofstrasse 16, 5507 Mellingen, Switzerland",,16,Obere Bahnhofstrasse,Mellingen,,AG,5507,Mellingen,Baden,Aargau,Switzerland,ch,0.8357142857142857,1,0.8357142857142857,0.8357142857142857,© OpenAddresses contributors,BSD-3-Clause License,
211,"Kastellstrasse 1, 8620 Wetzikon",47.33321,8.801611,"Kastellstrasse 1, 8623 Wetzikon (ZH), Switzerland",,1,Kastellstrasse,Wetzikon,Oberwetzikon,,8623,Wetzikon (ZH),Hinwil,Zurich,Switzerland,ch,1,1,1,1,© OpenAddresses contributors,BSD-3-Clause License,
212,"Schanzweg 7, 8330 Pfäffikon ZH",47.364047,8.76779,"Schanzweg 7, 8330 Pfäffikon, Switzerland",,7,Schanzweg,Pfäffikon,,,8330,Pfäffikon,Pfaffikon,Zurich,Switzerland,ch,1,1,1,1,© OpenAddresses contributors,BSD-3-Clause License,
213,"Schönbrunn, 6313 Edlibach",47.1774026,8.5636915,"Schönbrunn, 6313 Edlibach, Switzerland",Schönbrunn,,,,,ZG,6313,Edlibach,,Zug,Switzerland,ch,1,1,,,© OpenStreetMap contributors,Open Database License,https://www.openstreetmap.org/copyright
214,"Schönbrunn, 6313 Edlibach",47.1774026,8.5636915,"Schönbrunn, 6313 Edlibach, Switzerland",Schönbrunn,,,,,ZG,6313,Edlibach,,Zug,Switzerland,ch,1,1,,,© OpenStreetMap contributors,Open Database License,https://www.openstreetmap.org/copyright
215,"Althardstrasse 173, 8105 Regensdorf",47.4415977,8.465897,"Althardstrasse 173, 8105 Regensdorf, Switzerland",Althardstrasse,173,Althardstrasse,,,,8105,Regensdorf,Bezirk Dielsdorf,Zurich,Switzerland,ch,0.75,1,1,0.75,© OpenStreetMap contributors,Open Database License,https://www.openstreetmap.org/copyright
216,"Büelstrasse 35, 8604 Hegnau-Volketswil",47.39384,8.661335,"Büelstrasse 35, 8604 Volketswil, Switzerland",,35,Büelstrasse,Volketswil,,,8604,Volketswil,Uster,Zurich,Switzerland,ch,1,1,1,1,© OpenAddresses contributors,BSD-3-Clause License,
217,"Zugerstrasse 40, 6404 Küssnacht am Rigi",47.1024538,8.451129820671522,"Coop Pronto, Zugerstrasse 40, 6403 Immensee, Switzerland",Coop Pronto,40,Zugerstrasse,Küssnacht,,SZ,6403,Immensee,Küssnacht,Schwyz,Switzerland,ch,0.33333333333333337,0.33333333333333337,0.33333333333333337,0.33333333333333337,© OpenStreetMap contributors,Open Database License,https://www.openstreetmap.org/copyright
218,"Zürcherstrasse 34, 8604 Hegnau-Volketswil",47.3924365,8.6660756,"Auto Schiess, Zürcherstrasse 34, 8604 Volketswil, Switzerland",Auto Schiess,34,Zürcherstrasse,,,,8604,Volketswil,Bezirk Uster,Zurich,Switzerland,ch,1,1,1,1,© OpenStreetMap contributors,Open Database License,https://www.openstreetmap.org/copyright
219,"Schickmattweg 2, 8332 Russikon ZH",47.391556249999994,8.774432319857443,"Schickmattweg 2, 8332 Russikon, Switzerland",,2,Schickmattweg,,Gugguhof,,8332,Russikon,Bezirk Pfäffikon,Zurich,Switzerland,ch,1,1,1,1,© OpenStreetMap contributors,Open Database License,https://www.openstreetmap.org/copyright
220,"Bahnhofstrasse 2, 5242 Lupfig",47.4409141,8.2046219,"Bahnhofstrasse 2, 5242 Lupfig, Switzerland",,2,Bahnhofstrasse,,,AG,5242,Lupfig,Bezirk Brugg,Aargau,Switzerland,ch,1,1,1,1,© OpenStreetMap contributors,Open Database License,https://www.openstreetmap.org/copyright
221,"(Navi)Schaffhauserstrasse 320 / Weinlandstrasse 4, 8452 Adlikon bei Andelfingen",47.5460866,8.7098861,"Schaffhauserstrasse 4, 8452 Hettlingen, Switzerland",,4,Schaffhauserstrasse,Hettlingen,,,8452,Hettlingen,Winterthur,Zurich,Switzerland,ch,0.1,0.3333333333333333,0.11111111111111112,0.11111111111111112,© OpenStreetMap contributors,Open Database License,https://www.openstreetmap.org/copyright
222,"Pfäffikerstrasse 78, 8623 Wetzikon ZH",47.33778955,8.81148942171847,"Auto-Center, Pfäffikerstrasse 78, 8623 Wetzikon (ZH), Switzerland",Auto-Center,78,Pfäffikerstrasse,,Oberwetzikon,,8623,Wetzikon (ZH),Bezirk Hinwil,Zurich,Switzerland,ch,1,1,1,1,© OpenStreetMap contributors,Open Database License,https://www.openstreetmap.org/copyright
223,"Hauptstrasse 83, 5274 Mettau",47.562800300000006,8.129117445477622,"Hauptstrasse 83, 5274 Mettauertal, Switzerland",,83,Hauptstrasse,,,AG,5274,Mettauertal,Bezirk Laufenburg,Aargau,Switzerland,ch,1,1,1,1,© OpenStreetMap contributors,Open Database License,https://www.openstreetmap.org/copyright
224,"Weieracherstrasse 4, 8184 Bachenbülach",47.50580925,8.539462107632573,"Weieracherstrasse 4, 8184 Bachenbülach, Switzerland",,4,Weieracherstrasse,,,,8184,Bachenbülach,Bezirk Bülach,Zurich,Switzerland,ch,1,1,1,1,© OpenStreetMap contributors,Open Database License,https://www.openstreetmap.org/copyright
225,"Sägestrasse 5, 9230 Flawil",47.416398,9.17929455,"Sägestrasse 5, 9230 Flawil, Switzerland",,5,Sägestrasse,Botsberg,,,9230,Flawil,Wahlkreis Wil,St. Gallen,Switzerland,ch,1,1,1,1,© OpenStreetMap contributors,Open Database License,https://www.openstreetmap.org/copyright
226,"Zürichstrasse 47, 8607 Aathal-Seegräben",47.337943249999995,8.76313738620009,"Zürichstrasse 47, 8607 Sack, Switzerland",,47,Zürichstrasse,,,,8607,Sack,Bezirk Hinwil,Zurich,Switzerland,ch,1,1,1,1,© OpenStreetMap contributors,Open Database License,https://www.openstreetmap.org/copyright
227,"St.Gallerstrasse 188, 8404 Winterthur",47.49890225,8.761576394206449,"St. Gallerstrasse 188, 8404 Winterthur, Switzerland",,188,St. Gallerstrasse,,Oberwinterthur,,8404,Winterthur,Bezirk Winterthur,Zurich,Switzerland,ch,1,1,1,1,© OpenStreetMap contributors,Open Database License,https://www.openstreetmap.org/copyright
228,"Zürcherstrasse 73, 8800 Thalwil",47.285635,8.563142808001063,"Zürcherstrasse 73, 8800 Thalwil, Switzerland",,73,Zürcherstrasse,Böni,,,8800,Thalwil,Bezirk Horgen,Zurich,Switzerland,ch,1,1,1,1,© OpenStreetMap contributors,Open Database License,https://www.openstreetmap.org/copyright
229,"Industriestrasse 40, 8112 Otelfingen",47.4576968,8.399279658007718,"Industriestrasse 40, 8112 Otelfingen, Switzerland",,40,Industriestrasse,,,,8112,Otelfingen,Bezirk Dielsdorf,Zurich,Switzerland,ch,1,1,1,1,© OpenStreetMap contributors,Open Database License,https://www.openstreetmap.org/copyright
230,"Zürcherstrasse 15, 8620 Wetzikon",47.32020205,8.790778918844985,"Gruss-Ehrler, Zürcherstrasse 15, 8620 Wetzikon (ZH), Switzerland",Gruss-Ehrler,15,Zürcherstrasse,,Unterwetzikon,,8620,Wetzikon (ZH),Bezirk Hinwil,Zurich,Switzerland,ch,1,1,1,1,© OpenStreetMap contributors,Open Database License,https://www.openstreetmap.org/copyright
231,"Im Werd 4, 8103 Unterengstringen",47.402296050000004,8.427641097963356,"Im Werd 4, 8103 Unterengstringen, Switzerland",,4,Im Werd,,,,8103,Unterengstringen,Bezirk Dietikon,Zurich,Switzerland,ch,1,1,1,1,© OpenStreetMap contributors,Open Database License,https://www.openstreetmap.org/copyright
232,"Zürichstrasse 47, 8607 Aathal-Seegräben",47.337943249999995,8.76313738620009,"Zürichstrasse 47, 8607 Sack, Switzerland",,47,Zürichstrasse,,,,8607,Sack,Bezirk Hinwil,Zurich,Switzerland,ch,1,1,1,1,© OpenStreetMap contributors,Open Database License,https://www.openstreetmap.org/copyright
233,"Tössallmend 1, 8413 Neftenbach",47.519388,8.659308501908804,"Tössallmendstrasse 1, 8413 Neftenbach, Switzerland",,1,Tössallmendstrasse,Zelgli,,,8413,Neftenbach,Bezirk Winterthur,Zurich,Switzerland,ch,1,1,1,1,© OpenStreetMap contributors,Open Database License,https://www.openstreetmap.org/copyright
234,"Pfäffikerstrasse 78, 8623 Wetzikon ZH",47.33778955,8.81148942171847,"Auto-Center, Pfäffikerstrasse 78, 8623 Wetzikon (ZH), Switzerland",Auto-Center,78,Pfäffikerstrasse,,Oberwetzikon,,8623,Wetzikon (ZH),Bezirk Hinwil,Zurich,Switzerland,ch,1,1,1,1,© OpenStreetMap contributors,Open Database License,https://www.openstreetmap.org/copyright
235,"Zürichstrasse 47, 8607 Aathal-Seegräben",47.337943249999995,8.76313738620009,"Zürichstrasse 47, 8607 Sack, Switzerland",,47,Zürichstrasse,,,,8607,Sack,Bezirk Hinwil,Zurich,Switzerland,ch,1,1,1,1,© OpenStreetMap contributors,Open Database License,https://www.openstreetmap.org/copyright
236,"Bürglenstrasse 6, 8584 Opfershofen",47.5594227,9.1738997,"Bürglenstrasse 6, 8584 Opfershofen TG, Switzerland",,6,Bürglenstrasse,,,TG,8584,Opfershofen TG,Bezirk Weinfelden,Thurgau,Switzerland,ch,1,1,1,1,© OpenStreetMap contributors,Open Database License,https://www.openstreetmap.org/copyright
237,"Aspstrasse 12, 8154 Oberglatt",47.483028,8.502624,"Aspstrasse 12, 8154 Oberglatt, Switzerland",,12,Aspstrasse,Oberglatt,,,8154,Oberglatt,Dielsdorf,Zurich,Switzerland,ch,1,1,1,1,© OpenAddresses contributors,BSD-3-Clause License,
238,"Höhtal 2, 5420 Ehrendingen",47.485081449999996,8.333578113379069,"Höhtal 2, 5420 Ehrendingen, Switzerland",,2,Höhtal,,,AG,5420,Ehrendingen,Bezirk Baden,Aargau,Switzerland,ch,1,1,1,1,© OpenStreetMap contributors,Open Database License,https://www.openstreetmap.org/copyright
239,"Chaltenbodenstrasse 18, 8834 Schindellegi",47.1676199,8.7293271,"Chaltenbodenstrasse 18, 8834 Schindellegi, Switzerland",Chaltenbodenstrasse,18,Chaltenbodenstrasse,,,SZ,8834,Schindellegi,Höfe,Schwyz,Switzerland,ch,0.75,1,1,0.75,© OpenStreetMap contributors,Open Database License,https://www.openstreetmap.org/copyright
240,"St.Gallerstrasse 36, 8716 Schmerikon",47.2261615,8.9486461,"St. Gallerstrasse 36, 8716 Schmerikon, Switzerland",St. Gallerstrasse,36,St. Gallerstrasse,,,,8716,Schmerikon,Wahlkreis See-Gaster,St. Gallen,Switzerland,ch,0.5,1,1,0,© OpenStreetMap contributors,Open Database License,https://www.openstreetmap.org/copyright
241,"Egliswilerstrasse 35, 5707 Seengen",47.32946755,8.201948100059536,"Egliswilerstrasse 35, 5707 Seengen, Switzerland",,35,Egliswilerstrasse,,,AG,5707,Seengen,Bezirk Lenzburg,Aargau,Switzerland,ch,1,1,1,1,© OpenStreetMap contributors,Open Database License,https://www.openstreetmap.org/copyright
242,"Zürcherstrasse 73, 8800 Thalwil",47.285635,8.563142808001063,"Zürcherstrasse 73, 8800 Thalwil, Switzerland",,73,Zürcherstrasse,Böni,,,8800,Thalwil,Bezirk Horgen,Zurich,Switzerland,ch,1,1,1,1,© OpenStreetMap contributors,Open Database License,https://www.openstreetmap.org/copyright
243,"Eigenackerstrasse 45, 8193 Eglisau",47.581000200000005,8.516966836029578,"Eigenackerstrasse 45, 8193 Eglisau, Switzerland",,45,Eigenackerstrasse,,,,8193,Eglisau,Bezirk Bülach,Zurich,Switzerland,ch,1,1,1,1,© OpenStreetMap contributors,Open Database License,https://www.openstreetmap.org/copyright
244,"Eigenackerstrasse 45, 8193 Eglisau",47.581000200000005,8.516966836029578,"Eigenackerstrasse 45, 8193 Eglisau, Switzerland",,45,Eigenackerstrasse,,,,8193,Eglisau,Bezirk Bülach,Zurich,Switzerland,ch,1,1,1,1,© OpenStreetMap contributors,Open Database License,https://www.openstreetmap.org/copyright
245,"St.Gallerstrasse 188, 8404 Winterthur",47.49890225,8.761576394206449,"St. Gallerstrasse 188, 8404 Winterthur, Switzerland",,188,St. Gallerstrasse,,Oberwinterthur,,8404,Winterthur,Bezirk Winterthur,Zurich,Switzerland,ch,1,1,1,1,© OpenStreetMap contributors,Open Database License,https://www.openstreetmap.org/copyright
246,"Zugerstrasse 40, 6404 Küssnacht am Rigi",47.1024538,8.451129820671522,"Coop Pronto, Zugerstrasse 40, 6403 Immensee, Switzerland",Coop Pronto,40,Zugerstrasse,Küssnacht,,SZ,6403,Immensee,Küssnacht,Schwyz,Switzerland,ch,0.33333333333333337,0.33333333333333337,0.33333333333333337,0.33333333333333337,© OpenStreetMap contributors,Open Database License,https://www.openstreetmap.org/copyright
247,"Zürichstrasse 47, 8607 Aathal-Seegräben",47.337943249999995,8.76313738620009,"Zürichstrasse 47, 8607 Sack, Switzerland",,47,Zürichstrasse,,,,8607,Sack,Bezirk Hinwil,Zurich,Switzerland,ch,1,1,1,1,© OpenStreetMap contributors,Open Database License,https://www.openstreetmap.org/copyright
248,"Zürcherstrasse 34, 8604 Hegnau-Volketswil",47.3924365,8.6660756,"Auto Schiess, Zürcherstrasse 34, 8604 Volketswil, Switzerland",Auto Schiess,34,Zürcherstrasse,,,,8604,Volketswil,Bezirk Uster,Zurich,Switzerland,ch,1,1,1,1,© OpenStreetMap contributors,Open Database License,https://www.openstreetmap.org/copyright
249,"Überlandstrasse 160, 8953 Dietikon",47.4019858,8.4281293,"Ueberlandstrasse 160, 8953 Dietikon, Switzerland",,160,Ueberlandstrasse,,,,8953,Dietikon,Bezirk Dietikon,Zurich,Switzerland,ch,0.5,1,1,0,© OpenStreetMap contributors,Open Database License,https://www.openstreetmap.org/copyright
250,"Wilerstrasse 207, 9500 Kirchberg, 9500 Wil SG",47.465888,9.028415,"Wilerstrasse 74.5, 9500 Wil, Switzerland",,74.5,Wilerstrasse,Kirchberg,,,9500,Wil,Toggenburg,Saint Gallen,Switzerland,ch,0,,,0,© OpenAddresses contributors,BSD-3-Clause License,
251,"Sumpfstrasse,32, 6312 Steinhausen",47.187470899999994,8.485923494669688,"Sumpfstrasse 32, 6312 Steinhausen, Switzerland",,32,Sumpfstrasse,,Sumpf,ZG,6312,Steinhausen,,Zug,Switzerland,ch,1,1,1,1,© OpenStreetMap contributors,Open Database License,https://www.openstreetmap.org/copyright
252,"Asetstrasse 37d, 6438 Ibach",47.00729975,8.648245632676657,"Asetstrasse 37d, 6438 Schwyz, Switzerland",,37d,Asetstrasse,Eigenwies,,SZ,6438,Schwyz,Schwyz,Schwyz,Switzerland,ch,1,1,1,1,© OpenStreetMap contributors,Open Database License,https://www.openstreetmap.org/copyright
253,"Büelstrasse 44, 8604 Hegnau / Volketswil",47.39414,8.659262,"Büelstrasse 44, 8604 Volketswil, Switzerland",,44,Büelstrasse,Volketswil,,,8604,Volketswil,Uster,Zurich,Switzerland,ch,1,1,1,1,© OpenAddresses contributors,BSD-3-Clause License,
254,"Wässeristrasse 12, 8340 Hinwil",47.3046054,8.825916433158497,"Hintere Wässeristrasse 12, 8340 Hinwil, Switzerland",,12,Hintere Wässeristrasse,,,,8340,Hinwil,Bezirk Hinwil,Zurich,Switzerland,ch,0.9,1,0.9,0.9,© OpenStreetMap contributors,Open Database License,https://www.openstreetmap.org/copyright
255,"Nordring 2, 8854 Siebnen",47.177061550000005,8.90863920114002,"Nordring 2, 8854 Siebnen, Switzerland",,2,Nordring,,,SZ,8854,Siebnen,March,Schwyz,Switzerland,ch,1,1,1,1,© OpenStreetMap contributors,Open Database License,https://www.openstreetmap.org/copyright
256,"Asetstrasse 37d, 6438 Ibach",47.00729975,8.648245632676657,"Asetstrasse 37d, 6438 Schwyz, Switzerland",,37d,Asetstrasse,Eigenwies,,SZ,6438,Schwyz,Schwyz,Schwyz,Switzerland,ch,1,1,1,1,© OpenStreetMap contributors,Open Database License,https://www.openstreetmap.org/copyright
257,"Höhtal 2, 5420 Ehrendingen",47.485081449999996,8.333578113379069,"Höhtal 2, 5420 Ehrendingen, Switzerland",,2,Höhtal,,,AG,5420,Ehrendingen,Bezirk Baden,Aargau,Switzerland,ch,1,1,1,1,© OpenStreetMap contributors,Open Database License,https://www.openstreetmap.org/copyright
258,"Sandackerstrasse 10, 9245 Oberbüren",47.45142615,9.156862761568629,"Sandackerstrasse 10, 9245 Oberbüren, Switzerland",,10,Sandackerstrasse,,,,9245,Oberbüren,Wahlkreis Wil,St. Gallen,Switzerland,ch,1,1,1,1,© OpenStreetMap contributors,Open Database License,https://www.openstreetmap.org/copyright
259,"Haldenweg 1, 8586 Erlen",47.545159,9.213841,"Haldenweg 2, 8586 Riedt b. Erlen, Switzerland",,2,Haldenweg,Erlen,,TG,8586,Riedt b. Erlen,Weinfelden,Thurgau,Switzerland,ch,0.7,1,1,0.7,© OpenAddresses contributors,BSD-3-Clause License,
260,"Riedhofstrasse 57, 8408 Winterthur-Wülflingen",47.51397635,8.693726312806188,"Riedhofstrasse 57, 8408 Winterthur, Switzerland",,57,Riedhofstrasse,,Wülflingen,,8408,Winterthur,Bezirk Winterthur,Zurich,Switzerland,ch,1,1,1,1,© OpenStreetMap contributors,Open Database License,https://www.openstreetmap.org/copyright
261,"Untere Bahnhofstrasse 31, 8340 Hinwil ZH",47.30018,8.836204,"Untere Bahnhofstrasse 31, 8340 Hinwil, Switzerland",,31,Untere Bahnhofstrasse,Hinwil,,,8340,Hinwil,Hinwil,Zurich,Switzerland,ch,1,1,1,1,© OpenAddresses contributors,BSD-3-Clause License,
262,"Neunfornerstrasse 20, 8475 Ossingen",47.611271900000006,8.734423099208374,"Neunfornerstrasse 20, 8475 Ossingen, Switzerland",,20,Neunfornerstrasse,,,,8475,Ossingen,Bezirk Andelfingen,Zurich,Switzerland,ch,1,1,1,1,© OpenStreetMap contributors,Open Database License,https://www.openstreetmap.org/copyright
263,"Eternitstrasse 21, 8867 Niederurnen",47.11958344999999,9.059015699999996,"Eternitstrasse 21, 8867 Glarus Nord, Switzerland",,21,Eternitstrasse,Undergiessen,,GL,8867,Glarus Nord,,Glarus,Switzerland,ch,1,1,1,1,© OpenStreetMap contributors,Open Database License,https://www.openstreetmap.org/copyright
264,"Büelstrasse 44, 8604 Hegnau / Volketswil",47.39414,8.659262,"Büelstrasse 44, 8604 Volketswil, Switzerland",,44,Büelstrasse,Volketswil,,,8604,Volketswil,Uster,Zurich,Switzerland,ch,1,1,1,1,© OpenAddresses contributors,BSD-3-Clause License,
265,"Tösstalstrasse 263, 8497 Fischenthal",47.337964,8.925807,"Tösstalstrasse 263, 8497 Fischenthal, Switzerland",,263,Tösstalstrasse,Fischenthal,,,8497,Fischenthal,Hinwil,Zurich,Switzerland,ch,1,1,1,1,© OpenAddresses contributors,BSD-3-Clause License,
266,"Hauptstrasse 41, 5037 Muhen",47.33602605,8.05432744028846,"Garage Lüscher, Hauptstrasse 41, 5037 Muhen, Switzerland",Garage Lüscher,41,Hauptstrasse,,,AG,5037,Muhen,Bezirk Aarau,Aargau,Switzerland,ch,1,1,1,1,© OpenStreetMap contributors,Open Database License,https://www.openstreetmap.org/copyright
267,"Zürcherstrasse 34, 8604 Hegnau-Volketswil",47.3924365,8.6660756,"Auto Schiess, Zürcherstrasse 34, 8604 Volketswil, Switzerland",Auto Schiess,34,Zürcherstrasse,,,,8604,Volketswil,Bezirk Uster,Zurich,Switzerland,ch,1,1,1,1,© OpenStreetMap contributors,Open Database License,https://www.openstreetmap.org/copyright
268,"Büelstrasse 35, 8604 Hegnau-Volketswil",47.39384,8.661335,"Büelstrasse 35, 8604 Volketswil, Switzerland",,35,Büelstrasse,Volketswil,,,8604,Volketswil,Uster,Zurich,Switzerland,ch,1,1,1,1,© OpenAddresses contributors,BSD-3-Clause License,
269,"Büelstrasse 35, 8604 Hegnau-Volketswil",47.39384,8.661335,"Büelstrasse 35, 8604 Volketswil, Switzerland",,35,Büelstrasse,Volketswil,,,8604,Volketswil,Uster,Zurich,Switzerland,ch,1,1,1,1,© OpenAddresses contributors,BSD-3-Clause License,
270,"Zellmatte 10, 6214 Schenkon",47.1781814,8.12923504027519,"Zellmatte 10, 6214 Schenkon, Switzerland",,10,Zellmatte,,,,6214,Schenkon,,Lucerne,Switzerland,ch,1,1,1,1,© OpenStreetMap contributors,Open Database License,https://www.openstreetmap.org/copyright
271,"Sumpfstrasse,32, 6312 Steinhausen",47.187470899999994,8.485923494669688,"Sumpfstrasse 32, 6312 Steinhausen, Switzerland",,32,Sumpfstrasse,,Sumpf,ZG,6312,Steinhausen,,Zug,Switzerland,ch,1,1,1,1,© OpenStreetMap contributors,Open Database License,https://www.openstreetmap.org/copyright
272,"St.Gallerstrasse 188, 8404 Winterthur",47.49890225,8.761576394206449,"St. Gallerstrasse 188, 8404 Winterthur, Switzerland",,188,St. Gallerstrasse,,Oberwinterthur,,8404,Winterthur,Bezirk Winterthur,Zurich,Switzerland,ch,1,1,1,1,© OpenStreetMap contributors,Open Database License,https://www.openstreetmap.org/copyright
273,"Rütistrasse 41, 8634 Hombrechtikon",47.253523,8.775367,"Rütistrasse 41, 8634 Hombrechtikon, Switzerland",,41,Rütistrasse,Hombrechtikon,,,8634,Hombrechtikon,Meilen,Zurich,Switzerland,ch,1,1,1,1,© OpenAddresses contributors,BSD-3-Clause License,
274,"Gewerbestrasse 4, 6417 Sattel",47.074241,8.628509,"Gewerbestrasse 4, 6417 Sattel, Switzerland",,4,Gewerbestrasse,Sattel,,SZ,6417,Sattel,Schwyz,Schwyz,Switzerland,ch,1,1,1,1,© OpenAddresses contributors,BSD-3-Clause License,
275,"Fabrikstrasse 6, 8340 Hinwil",47.300191,8.83841515,"Fabrikstrasse 6, 8340 Hadlikon, Switzerland",,6,Fabrikstrasse,,,,8340,Hadlikon,Bezirk Hinwil,Zurich,Switzerland,ch,1,1,1,1,© OpenStreetMap contributors,Open Database License,https://www.openstreetmap.org/copyright
276,"Fabrikstrasse 6, 8340 Hinwil",47.300191,8.83841515,"Fabrikstrasse 6, 8340 Hadlikon, Switzerland",,6,Fabrikstrasse,,,,8340,Hadlikon,Bezirk Hinwil,Zurich,Switzerland,ch,1,1,1,1,© OpenStreetMap contributors,Open Database License,https://www.openstreetmap.org/copyright
277,"Gschwaderstrasse 71B, 8610 Uster",47.361754250000004,8.716528221570579,"Gschwaderstrasse 71b, 8610 Uster, Switzerland",,71b,Gschwaderstrasse,,,,8610,Uster,Bezirk Uster,Zurich,Switzerland,ch,1,1,1,1,© OpenStreetMap contributors,Open Database License,https://www.openstreetmap.org/copyright
278,"Dorfstrasse 14, 8164 Bachs",47.52459125,8.43743457745893,"Dorfstrasse 14, 8164 Bachs, Switzerland",,14,Dorfstrasse,,Eichhof,,8164,Bachs,Bezirk Dielsdorf,Zurich,Switzerland,ch,1,1,1,1,© OpenStreetMap contributors,Open Database License,https://www.openstreetmap.org/copyright
279,"Ruessenstrasse 22, 6340 Baar",47.2123657,8.564873558819558,"Garage Andermatt AG Baar, Ruessenstrasse 22, 6340 Baar, Switzerland",Garage Andermatt AG Baar,22,Ruessenstrasse,Walterswil,,ZG,6340,Baar,,Zug,Switzerland,ch,1,1,1,1,© OpenStreetMap contributors,Open Database License,https://www.openstreetmap.org/copyright
280,"St. Gallerstrasse 44, 9548 Matzingen",47.5153963,8.936153246280991,"Carrosserie Kuhn GmbH, St. Gallerstrasse 44, 9548 Matzingen, Switzerland",Carrosserie Kuhn GmbH,44,St. Gallerstrasse,,Mühle,TG,9548,Matzingen,Bezirk Frauenfeld,Thurgau,Switzerland,ch,1,1,1,1,© OpenStreetMap contributors,Open Database License,https://www.openstreetmap.org/copyright
281,"Zugerstrasse 2, 6340 Sihlbrugg",47.217015450000005,8.576042895348618,"Zugerstrasse 2, 6340 Neuheim, Switzerland",,2,Zugerstrasse,,,ZG,6340,Neuheim,,Zug,Switzerland,ch,0.95,1,1,1,© OpenStreetMap contributors,Open Database License,https://www.openstreetmap.org/copyright
282,"Gewerbestrasse 6, 6417 Sattel",47.074513,8.628915,"Gewerbestrasse 6, 6417 Sattel, Switzerland",,6,Gewerbestrasse,Sattel,,SZ,6417,Sattel,Schwyz,Schwyz,Switzerland,ch,1,1,1,1,© OpenAddresses contributors,BSD-3-Clause License,
283,"Feldmoosstrasse 8, 8853 Lachen",47.190355749999995,8.864126797702895,"Feldmoosstrasse 8, 8853 Lachen, Switzerland",,8,Feldmoosstrasse,Gugelberg,,SZ,8853,Lachen,March,Schwyz,Switzerland,ch,1,1,1,1,© OpenStreetMap contributors,Open Database License,https://www.openstreetmap.org/copyright
284,"Fabrikstrasse 6, 8340 Hinwil",47.300191,8.83841515,"Fabrikstrasse 6, 8340 Hadlikon, Switzerland",,6,Fabrikstrasse,,,,8340,Hadlikon,Bezirk Hinwil,Zurich,Switzerland,ch,1,1,1,1,© OpenStreetMap contributors,Open Database License,https://www.openstreetmap.org/copyright
285,"Alte Steinhauserstrasse 1, 6330 Cham",47.1864861,8.4738305,"Alte Steinhauserstrasse 1, 6312 Cham, Switzerland",,1,Alte Steinhauserstrasse,,Städtler Allmend,ZG,6312,Cham,,Zug,Switzerland,ch,1,1,1,1,© OpenStreetMap contributors,Open Database License,https://www.openstreetmap.org/copyright
286,"Rigiweg 1, 6343 Holzhäusern",47.1536893,8.437747,"Rigiweg 1, 6343 Risch-Rotkreuz, Switzerland",Rigiweg,1,Rigiweg,Sankt Wendelin,,ZG,6343,Risch-Rotkreuz,,Zug,Switzerland,ch,0.5,1,1,0,© OpenStreetMap contributors,Open Database License,https://www.openstreetmap.org/copyright
287,"Chollerstrasse 2, 6300 Zug",47.182126,8.484825,"Chollerstrasse 2, 6300 Zug, Switzerland",,2,Chollerstrasse,Zug,,ZG,6300,Zug,Zug,Zug,Switzerland,ch,1,1,1,1,© OpenAddresses contributors,BSD-3-Clause License,
288,"Zugerstrasse 2, 6340 Sihlbrugg",47.217015450000005,8.576042895348618,"Zugerstrasse 2, 6340 Neuheim, Switzerland",,2,Zugerstrasse,,,ZG,6340,Neuheim,,Zug,Switzerland,ch,0.95,1,1,1,© OpenStreetMap contributors,Open Database License,https://www.openstreetmap.org/copyright
289,"Hirzenstrasse 1, 9244 Niederuzwil",47.444473099999996,9.148345475325076,"Nocera & Strub AG, Hirzenstrasse 1, 9244 Uzwil, Switzerland",Nocera & Strub AG,1,Hirzenstrasse,,,,9244,Uzwil,Wahlkreis Wil,St. Gallen,Switzerland,ch,1,1,1,1,© OpenStreetMap contributors,Open Database License,https://www.openstreetmap.org/copyright
290,"Gewerbestrasse 6, 6417 Sattel",47.074513,8.628915,"Gewerbestrasse 6, 6417 Sattel, Switzerland",,6,Gewerbestrasse,Sattel,,SZ,6417,Sattel,Schwyz,Schwyz,Switzerland,ch,1,1,1,1,© OpenAddresses contributors,BSD-3-Clause License,
291,"Schaffhauserstrasse 150, 8400 Winterthur",47.516279049999994,8.720709482236025,"Schaffhauserstrasse 150, 8407 Winterthur, Switzerland",,150,Schaffhauserstrasse,,Veltheim,,8407,Winterthur,Bezirk Winterthur,Zurich,Switzerland,ch,1,1,1,1,© OpenStreetMap contributors,Open Database License,https://www.openstreetmap.org/copyright
292,"Zürcherstrasse 240, 8406 Winterthur-Töss",47.486054100000004,8.70188346789959,"Zürcherstrasse 240, 8406 Winterthur, Switzerland",,240,Zürcherstrasse,,Töss,,8406,Winterthur,Bezirk Winterthur,Zurich,Switzerland,ch,1,1,1,1,© OpenStreetMap contributors,Open Database License,https://www.openstreetmap.org/copyright
293,"Kirchbergerstrasse 36, 9534 Gähwil",47.39712635,9.006567121895014,"Schmid-Garage AG, Kirchbergerstrasse 36, 9534 Kirchberg (SG), Switzerland",Schmid-Garage AG,36,Kirchbergerstrasse,,,,9534,Kirchberg (SG),Wahlkreis Toggenburg,St. Gallen,Switzerland,ch,1,1,1,1,© OpenStreetMap contributors,Open Database License,https://www.openstreetmap.org/copyright
294,"Hauptstrasse 99, 8280 Kreuzlingen 2",47.6444997,9.181141848002754,"Hauptstrasse 99, 8280 Kreuzlingen, Switzerland",,99,Hauptstrasse,Gaissberg,,TG,8280,Kreuzlingen,Bezirk Kreuzlingen,Thurgau,Switzerland,ch,1,1,1,1,© OpenStreetMap contributors,Open Database License,https://www.openstreetmap.org/copyright
295,"Zürcherstrasse 102, 8852 Altendorf",47.1976369,8.812928822387173,"Zürcherstrasse 102, 8852 Altendorf, Switzerland",,102,Zürcherstrasse,,,SZ,8852,Altendorf,March,Schwyz,Switzerland,ch,1,1,1,1,© OpenStreetMap contributors,Open Database License,https://www.openstreetmap.org/copyright
296,"Kirchbergerstrasse 36, 9534 Gähwil",47.39712635,9.006567121895014,"Schmid-Garage AG, Kirchbergerstrasse 36, 9534 Kirchberg (SG), Switzerland",Schmid-Garage AG,36,Kirchbergerstrasse,,,,9534,Kirchberg (SG),Wahlkreis Toggenburg,St. Gallen,Switzerland,ch,1,1,1,1,© OpenStreetMap contributors,Open Database License,https://www.openstreetmap.org/copyright
297,"Luchswiesenstrasse 220, 8051 Zürich",47.40646475,8.585410461107724,"Luchswiesenstrasse 220, 8051 Zurich, Switzerland",,220,Luchswiesenstrasse,,Kreis 12,,8051,Zurich,District Zurich,Zurich,Switzerland,ch,1,1,1,1,© OpenStreetMap contributors,Open Database License,https://www.openstreetmap.org/copyright
298,"Seehaldenstrasse 2, 8803 Rüschlikon",47.297987,8.549548,"Seehaldenstrasse 2, 8803 Rüschlikon, Switzerland",,2,Seehaldenstrasse,Rüschlikon,,,8803,Rüschlikon,Horgen,Zurich,Switzerland,ch,1,1,1,1,© OpenAddresses contributors,BSD-3-Clause License,
299,"Winkelstrasse 2, 5442 Fislisbach",47.4416483,8.2956752,"Winkelstrasse 2, 5442 Fislisbach, Switzerland",,2,Winkelstrasse,,,AG,5442,Fislisbach,Bezirk Baden,Aargau,Switzerland,ch,1,1,1,1,© OpenStreetMap contributors,Open Database License,https://www.openstreetmap.org/copyright
300,"Hinterbergstrasse 21, 6330 Cham",47.187926,8.477349,"Hinterbergstrasse 21, 6330 Cham, Switzerland",,21,Hinterbergstrasse,Cham,,ZG,6330,Cham,Zug,Zug,Switzerland,ch,1,1,1,1,© OpenAddresses contributors,BSD-3-Clause License,
301,"Glärnischstrasse 17, 8853 Lachen",47.19132845,8.864710196383221,"Glärnischstrasse 17, 8853 Lachen, Switzerland",,17,Glärnischstrasse,Gugelberg,,SZ,8853,Lachen,March,Schwyz,Switzerland,ch,1,1,1,1,© OpenStreetMap contributors,Open Database License,https://www.openstreetmap.org/copyright
302,"Bergstrasse 28, 6410 Goldau",47.0529125,8.551273816611083,"Bergstrasse 28, 6410 Goldau, Switzerland",,28,Bergstrasse,Tännmatt,Oberarth,SZ,6410,Goldau,Schwyz,Schwyz,Switzerland,ch,1,1,1,1,© OpenStreetMap contributors,Open Database License,https://www.openstreetmap.org/copyright
303,"Schaffhauserstrasse 150, 8400 Winterthur",47.516279049999994,8.720709482236025,"Schaffhauserstrasse 150, 8407 Winterthur, Switzerland",,150,Schaffhauserstrasse,,Veltheim,,8407,Winterthur,Bezirk Winterthur,Zurich,Switzerland,ch,1,1,1,1,© OpenStreetMap contributors,Open Database License,https://www.openstreetmap.org/copyright
304,"Im Vorderasp 3, 8154 Oberglatt   ( Kanton ZH )",47.482231,8.503344,"Im Vorderasp 3, 8172 Hofstetten, Switzerland",,3,Im Vorderasp,Oberglatt,,,8172,Hofstetten,Dielsdorf,Zurich,Switzerland,ch,0.3,0.3,0.3,0.3,© OpenAddresses contributors,BSD-3-Clause License,
305,"Bliggenswilerstr.12, 8494 Bauma",47.368852950000004,8.868192865890148,"Bliggenswilerstrasse 12, 8494 Bauma, Switzerland",,12,Bliggenswilerstrasse,Widen,,,8494,Bauma,Bezirk Pfäffikon,Zurich,Switzerland,ch,1,1,1,1,© OpenStreetMap contributors,Open Database License,https://www.openstreetmap.org/copyright
306,"Langfeldstrasse 77, 8500 Frauenfeld, 8500 Frauenfeld",47.567633,8.908767,"Langfeldstrasse 77, 8500 Frauenfeld, Switzerland",,77,Langfeldstrasse,Frauenfeld,,TG,8500,Frauenfeld,Frauenfeld,Thurgau,Switzerland,ch,1,1,1,1,© OpenAddresses contributors,BSD-3-Clause License,
307,"Studacherstrasse 1, 5416 Kirchdorf AG",47.4937148,8.2743101,"Studacherstrasse 1, 5416 Kirchdorf, Switzerland",,1,Studacherstrasse,,,AG,5416,Kirchdorf,Bezirk Baden,Aargau,Switzerland,ch,1,1,1,1,© OpenStreetMap contributors,Open Database License,https://www.openstreetmap.org/copyright
308,8500 Frauenfeld,47.555284549,8.890225435,"8500 Frauenfeld, Switzerland",,,,,,TG,8500,Frauenfeld,Bezirk Frauenfeld,Thurgau,Switzerland,ch,1,1,,,© OpenStreetMap contributors,Open Database License,https://www.openstreetmap.org/copyright
309,8800 Thalwil,47.2944325,8.5635762,"8800 Thalwil, Switzerland",,,,,,,8800,Thalwil,Bezirk Horgen,Zurich,Switzerland,ch,1,1,,,© OpenStreetMap contributors,Open Database License,https://www.openstreetmap.org/copyright
310,"Chamerstrasse 2, 6343 Rotkreuz",47.14558425,8.43207125300288,"Garage Wismer AG Audi, Chamerstrasse 2, 6343 Risch-Rotkreuz, Switzerland",Garage Wismer AG Audi,2,Chamerstrasse,,,ZG,6343,Risch-Rotkreuz,,Zug,Switzerland,ch,1,1,1,1,© OpenStreetMap contributors,Open Database License,https://www.openstreetmap.org/copyright
311,"Schaffhauserstrasse 150, 8400 Winterthur",47.516279049999994,8.720709482236025,"Schaffhauserstrasse 150, 8407 Winterthur, Switzerland",,150,Schaffhauserstrasse,,Veltheim,,8407,Winterthur,Bezirk Winterthur,Zurich,Switzerland,ch,1,1,1,1,© OpenStreetMap contributors,Open Database License,https://www.openstreetmap.org/copyright
312,"Benknerstrasse 20, 8730 Uznach",47.2194596,8.986651011027615,"Benknerstrasse 20, 8730 Uznach, Switzerland",,20,Benknerstrasse,,,,8730,Uznach,Wahlkreis See-Gaster,St. Gallen,Switzerland,ch,1,1,1,1,© OpenStreetMap contributors,Open Database License,https://www.openstreetmap.org/copyright
313,"Benknerstrasse 20, 8730 Uznach",47.2194596,8.986651011027615,"Benknerstrasse 20, 8730 Uznach, Switzerland",,20,Benknerstrasse,,,,8730,Uznach,Wahlkreis See-Gaster,St. Gallen,Switzerland,ch,1,1,1,1,© OpenStreetMap contributors,Open Database License,https://www.openstreetmap.org/copyright
314,"Sandackerstrasse 16, 9245 Oberbüren",47.4513159,9.1562407,"Sandackerstrasse 16, 9245 Oberbüren, Switzerland",,16,Sandackerstrasse,,,,9245,Oberbüren,Wahlkreis Wil,St. Gallen,Switzerland,ch,1,1,1,1,© OpenStreetMap contributors,Open Database License,https://www.openstreetmap.org/copyright
315,"Grindlenstrasse 2, 8954 Geroldswil",47.4167438,8.4146957,"Grindlenstrasse 2, 8954 Geroldswil, Switzerland",,2,Grindlenstrasse,Im Welbrig,Im Werd,,8954,Geroldswil,Bezirk Dietikon,Zurich,Switzerland,ch,1,1,1,1,© OpenStreetMap contributors,Open Database License,https://www.openstreetmap.org/copyright
316,"Schaffhauserstrasse 150, 8400 Winterthur",47.516279049999994,8.720709482236025,"Schaffhauserstrasse 150, 8407 Winterthur, Switzerland",,150,Schaffhauserstrasse,,Veltheim,,8407,Winterthur,Bezirk Winterthur,Zurich,Switzerland,ch,1,1,1,1,© OpenStreetMap contributors,Open Database License,https://www.openstreetmap.org/copyright
317,"Im Vorderasp 3, 8154 Oberglatt   ( Kanton ZH )",47.482231,8.503344,"Im Vorderasp 3, 8172 Hofstetten, Switzerland",,3,Im Vorderasp,Oberglatt,,,8172,Hofstetten,Dielsdorf,Zurich,Switzerland,ch,0.3,0.3,0.3,0.3,© OpenAddresses contributors,BSD-3-Clause License,
318,"Im Vorderasp 3, 8154 Oberglatt   ( Kanton ZH )",47.482231,8.503344,"Im Vorderasp 3, 8172 Hofstetten, Switzerland",,3,Im Vorderasp,Oberglatt,,,8172,Hofstetten,Dielsdorf,Zurich,Switzerland,ch,0.3,0.3,0.3,0.3,© OpenAddresses contributors,BSD-3-Clause License,
319,"Schaffhauserstrasse 150, 8400 Winterthur",47.516279049999994,8.720709482236025,"Schaffhauserstrasse 150, 8407 Winterthur, Switzerland",,150,Schaffhauserstrasse,,Veltheim,,8407,Winterthur,Bezirk Winterthur,Zurich,Switzerland,ch,1,1,1,1,© OpenStreetMap contributors,Open Database License,https://www.openstreetmap.org/copyright
320,6330 Cham,47.185512502,8.459985621,"6330 Cham, Switzerland",,,,,,ZG,6330,Cham,,Zug,Switzerland,ch,1,1,,,© OpenStreetMap contributors,Open Database License,https://www.openstreetmap.org/copyright
321,6313 Menzingen,47.178291,8.5899339,"6313 Menzingen, Switzerland",,,,,,ZG,6313,Menzingen,,Zug,Switzerland,ch,1,1,,,© OpenStreetMap contributors,Open Database License,https://www.openstreetmap.org/copyright
322,9200 Gossau,47.415224462,9.25338476,"9200 Gossau (SG), Switzerland",,,,,,,9200,Gossau (SG),Wahlkreis St. Gallen,St. Gallen,Switzerland,ch,1,1,,,© OpenStreetMap contributors,Open Database License,https://www.openstreetmap.org/copyright
323,8152 Glattpark(Opfikon),47.42972385,8.568401585,"8152 Opfikon, Switzerland",,,,,,,8152,Opfikon,Bezirk Bülach,Zurich,Switzerland,ch,1,1,,,© OpenStreetMap contributors,Open Database License,https://www.openstreetmap.org/copyright
324,9565 Bussnang,47.550138584,9.089298167,"9565 Bussnang, Switzerland",,,,,,TG,9565,Bussnang,Bezirk Weinfelden,Thurgau,Switzerland,ch,1,1,,,© OpenStreetMap contributors,Open Database License,https://www.openstreetmap.org/copyright
325,5102 Rupperswil,47.4027283,8.1274477,"5102 Rupperswil, Switzerland",,,,,,AG,5102,Rupperswil,Bezirk Lenzburg,Aargau,Switzerland,ch,1,1,,,© OpenStreetMap contributors,Open Database License,https://www.openstreetmap.org/copyright
326,"Nassi, 9107 Urnäsch",47.3178621,9.2834506,"9107 Urnäsch, Switzerland",,,,,,AR,9107,Urnäsch,Hinterland,Appenzell Ausserrhoden,Switzerland,ch,0.5,1,,,© OpenStreetMap contributors,Open Database License,https://www.openstreetmap.org/copyright
327,8047 Zürich,47.374431038,8.491101849,"8047 Zurich, Switzerland",,,,,Kreis 9,,8047,Zurich,District Zurich,Zurich,Switzerland,ch,1,1,,,© OpenStreetMap contributors,Open Database License,https://www.openstreetmap.org/copyright
328,8404 Winterthur,47.507693124,8.758497322,"8404 Winterthur, Switzerland",,,,,Oberwinterthur,,8404,Winterthur,Bezirk Winterthur,Zurich,Switzerland,ch,1,1,,,© OpenStreetMap contributors,Open Database License,https://www.openstreetmap.org/copyright
329,8005 Zürich,47.386330022,8.524630276,"8005 Zurich, Switzerland",,,,,Industriequartier,,8005,Zurich,District Zurich,Zurich,Switzerland,ch,1,1,,,© OpenStreetMap contributors,Open Database License,https://www.openstreetmap.org/copyright
330,"Tösstalstrasse 6, 8360 Wallenwil",47.4609493,8.9544666,"Tösstalstrasse 6, 8360 Wallenwil, Switzerland",Tösstalstrasse,6,Tösstalstrasse,,,TG,8360,Wallenwil,Bezirk Münchwilen,Thurgau,Switzerland,ch,0.75,1,1,0.75,© OpenStreetMap contributors,Open Database License,https://www.openstreetmap.org/copyright
331,"Im Vorderasp 3, 8154 Oberglatt   ( Kanton ZH )",47.482231,8.503344,"Im Vorderasp 3, 8172 Hofstetten, Switzerland",,3,Im Vorderasp,Oberglatt,,,8172,Hofstetten,Dielsdorf,Zurich,Switzerland,ch,0.3,0.3,0.3,0.3,© OpenAddresses contributors,BSD-3-Clause License,
332,"Schaffhauserstrasse 150, 8400 Winterthur",47.516279049999994,8.720709482236025,"Schaffhauserstrasse 150, 8407 Winterthur, Switzerland",,150,Schaffhauserstrasse,,Veltheim,,8407,Winterthur,Bezirk Winterthur,Zurich,Switzerland,ch,1,1,1,1,© OpenStreetMap contributors,Open Database License,https://www.openstreetmap.org/copyright
333,"Winkelstrasse 2, 5442 Fislisbach",47.4416483,8.2956752,"Winkelstrasse 2, 5442 Fislisbach, Switzerland",,2,Winkelstrasse,,,AG,5442,Fislisbach,Bezirk Baden,Aargau,Switzerland,ch,1,1,1,1,© OpenStreetMap contributors,Open Database License,https://www.openstreetmap.org/copyright
334,"Wilerstrasse 72, 9542 Münchwilen",47.466394,9.027298931473798,"Auto Welt von Rotz, Wilerstrasse 72, 9542 Münchwilen (TG), Switzerland",Auto Welt von Rotz,72,Wilerstrasse,,,TG,9542,Münchwilen (TG),Bezirk Münchwilen,Thurgau,Switzerland,ch,1,1,1,1,© OpenStreetMap contributors,Open Database License,https://www.openstreetmap.org/copyright
335,"Sandackerstrasse 16, 9245 Oberbüren",47.4513159,9.1562407,"Sandackerstrasse 16, 9245 Oberbüren, Switzerland",,16,Sandackerstrasse,,,,9245,Oberbüren,Wahlkreis Wil,St. Gallen,Switzerland,ch,1,1,1,1,© OpenStreetMap contributors,Open Database License,https://www.openstreetmap.org/copyright
336,"Chamerstrasse 2, 6343 Rotkreuz",47.14558425,8.43207125300288,"Garage Wismer AG Audi, Chamerstrasse 2, 6343 Risch-Rotkreuz, Switzerland",Garage Wismer AG Audi,2,Chamerstrasse,,,ZG,6343,Risch-Rotkreuz,,Zug,Switzerland,ch,1,1,1,1,© OpenStreetMap contributors,Open Database License,https://www.openstreetmap.org/copyright
337,8909 Zwillikon,47.2880474,8.4310838,"8909 Zwillikon (Affoltern am Albis), Switzerland",,,,,,,8909,Affoltern am Albis,Bezirk Affoltern,Zurich,Switzerland,ch,1,1,,,© OpenStreetMap contributors,Open Database License,https://www.openstreetmap.org/copyright
338,5722 Gränichen,47.3592835,8.0971009,"5722 Gränichen, Switzerland",,,,,,AG,5722,Gränichen,Bezirk Aarau,Aargau,Switzerland,ch,1,1,,,© OpenStreetMap contributors,Open Database License,https://www.openstreetmap.org/copyright
339,8370 Sirnach,47.462393464,8.995283591,"8370 Sirnach, Switzerland",,,,,,TG,8370,Sirnach,Bezirk Münchwilen,Thurgau,Switzerland,ch,1,1,,,© OpenStreetMap contributors,Open Database License,https://www.openstreetmap.org/copyright
340,8363 Bichelsee,47.4483485,8.9239155,"8363 Bichelsee (Bichelsee-Balterswil), Switzerland",,,,,,TG,8363,Bichelsee-Balterswil,Bezirk Münchwilen,Thurgau,Switzerland,ch,1,1,,,© OpenStreetMap contributors,Open Database License,https://www.openstreetmap.org/copyright
341,5507 Mellingen,47.4195131,8.274659,"5507 Mellingen, Switzerland",,,,,,AG,5507,Mellingen,Bezirk Baden,Aargau,Switzerland,ch,1,1,,,© OpenStreetMap contributors,Open Database License,https://www.openstreetmap.org/copyright
342,8956 Killwangen,47.4315553,8.3518766,"8956 Killwangen, Switzerland",,,,,,AG,8956,Killwangen,Bezirk Baden,Aargau,Switzerland,ch,1,1,,,© OpenStreetMap contributors,Open Database License,https://www.openstreetmap.org/copyright
343,6331 Hünenberg,47.171520279,8.429463199,"6331 Hünenberg, Switzerland",,,,,,ZG,6331,Hünenberg,,Zug,Switzerland,ch,1,1,,,© OpenStreetMap contributors,Open Database License,https://www.openstreetmap.org/copyright
344,9200 Gossau,47.415224462,9.25338476,"9200 Gossau (SG), Switzerland",,,,,,,9200,Gossau (SG),Wahlkreis St. Gallen,St. Gallen,Switzerland,ch,1,1,,,© OpenStreetMap contributors,Open Database License,https://www.openstreetmap.org/copyright
345,8003 Zurich,47.372750298,8.515745501,"8003 Zurich, Switzerland",,,,,Kreis 3,,8003,Zurich,District Zurich,Zurich,Switzerland,ch,1,1,,,© OpenStreetMap contributors,Open Database License,https://www.openstreetmap.org/copyright
346,"Rütistrasse 41, 8634 Hombrechtikon",47.253523,8.775367,"Rütistrasse 41, 8634 Hombrechtikon, Switzerland",,41,Rütistrasse,Hombrechtikon,,,8634,Hombrechtikon,Meilen,Zurich,Switzerland,ch,1,1,1,1,© OpenAddresses contributors,BSD-3-Clause License,
347,"Aargauerstrasse 13, 6215 Beromünster",47.20896,8.190986,"Aargauerstrasse 13, 6215 Beromünster, Switzerland",,13,Aargauerstrasse,Beromünster,,,6215,Beromünster,Sursee,Lucerne,Switzerland,ch,1,1,1,1,© OpenAddresses contributors,BSD-3-Clause License,
